{"type": "FeatureCollection", "features": [{"type": "Feature", "properties": {"name": "Foliage Garden", "ch_rating": 5.0, "ch_count": 1.0, "all_rating": 4.2, "all_count": 122.0, "zip": "07093", "flushing": false}, "geometry": {"type": "Point", "coordinates": [-74.00879809999999, 40.785879]}}, {"type": "Feature", "properties": {"name": "China Taste", "ch_rating": 5.0, "ch_count": 1.0, "all_rating": 3.9, "all_count": 138.0, "zip": "07047", "flushing": false}, "geometry": {"type": "Point", "coordinates": [-74.00694140000002, 40.8010666]}}, {"type": "Feature", "properties": {"name": "China House", "ch_rating": 5.0, "ch_count": 1.0, "all_rating": 4.3, "all_count": 138.0, "zip": "11416", "flushing": false}, "geometry": {"type": "Point", "coordinates": [-73.84069219999999, 40.6901012]}}, {"type": "Feature", "properties": {"name": "House of Chen", "ch_rating": 5.0, "ch_count": 1.0, "all_rating": 4.3, "all_count": 116.0, "zip": "11203", "flushing": false}, "geometry": {"type": "Point", "coordinates": [-73.9283171, 40.6569456]}}, {"type": "Feature", "properties": {"name": "China Kitchen", "ch_rating": 5.0, "ch_count": 1.0, "all_rating": 3.9, "all_count": 115.0, "zip": "11203", "flushing": false}, "geometry": {"type": "Point", "coordinates": [-73.946223, 40.650796]}}, {"type": "Feature", "properties": {"name": "Wah Yung (Chinese)", "ch_rating": 5.0, "ch_count": 1.0, "all_rating": 3.8, "all_count": 107.0, "zip": "11212", "flushing": false}, "geometry": {"type": "Point", "coordinates": [-73.9094798, 40.6641907]}}, {"type": "Feature", "properties": {"name": "Al Aqsa Kitchen (With Halal Chinese)", "ch_rating": 5.0, "ch_count": 1.0, "all_rating": 3.7, "all_count": 277.0, "zip": "10462", "flushing": false}, "geometry": {"type": "Point", "coordinates": [-73.8543545, 40.83495780000001]}}, {"type": "Feature", "properties": {"name": "Big Apple", "ch_rating": 5.0, "ch_count": 1.0, "all_rating": 3.9, "all_count": 106.0, "zip": "10460", "flushing": false}, "geometry": {"type": "Point", "coordinates": [-73.8832778, 40.8414306]}}, {"type": "Feature", "properties": {"name": "Food Bo Garden", "ch_rating": 5.0, "ch_count": 1.0, "all_rating": 4.1, "all_count": 128.0, "zip": "10459", "flushing": false}, "geometry": {"type": "Point", "coordinates": [-73.8964644, 40.8208156]}}, {"type": "Feature", "properties": {"name": "Cheng's Restaurant", "ch_rating": 5.0, "ch_count": 1.0, "all_rating": 3.7, "all_count": 134.0, "zip": "10303", "flushing": false}, "geometry": {"type": "Point", "coordinates": [-74.1558974, 40.6256389]}}, {"type": "Feature", "properties": {"name": "Kam Heung Kitchen", "ch_rating": 5.0, "ch_count": 1.0, "all_rating": 4.1, "all_count": 128.0, "zip": "08861", "flushing": false}, "geometry": {"type": "Point", "coordinates": [-74.2674281, 40.5198873]}}, {"type": "Feature", "properties": {"name": "China Tang Kitchen", "ch_rating": 5.0, "ch_count": 1.0, "all_rating": 4.2, "all_count": 103.0, "zip": "11226", "flushing": false}, "geometry": {"type": "Point", "coordinates": [-73.95848450000001, 40.6441227]}}, {"type": "Feature", "properties": {"name": "China Cocina", "ch_rating": 5.0, "ch_count": 1.0, "all_rating": 4.3, "all_count": 220.0, "zip": "11368", "flushing": true}, "geometry": {"type": "Point", "coordinates": [-73.8624116, 40.7494361]}}, {"type": "Feature", "properties": {"name": "Family Kitchen", "ch_rating": 5.0, "ch_count": 1.0, "all_rating": 4.2, "all_count": 139.0, "zip": "11230", "flushing": false}, "geometry": {"type": "Point", "coordinates": [-73.9610393, 40.6352959]}}, {"type": "Feature", "properties": {"name": "China Wok", "ch_rating": 5.0, "ch_count": 1.0, "all_rating": 4.1, "all_count": 157.0, "zip": "10461", "flushing": false}, "geometry": {"type": "Point", "coordinates": [-73.8456013, 40.8442308]}}, {"type": "Feature", "properties": {"name": "Chinese Gourmet", "ch_rating": 5.0, "ch_count": 1.0, "all_rating": 4.7, "all_count": 118.0, "zip": "10453", "flushing": false}, "geometry": {"type": "Point", "coordinates": [-73.92007989999999, 40.8526175]}}, {"type": "Feature", "properties": {"name": "Apple Garden", "ch_rating": 5.0, "ch_count": 1.0, "all_rating": 3.5, "all_count": 110.0, "zip": "11433", "flushing": false}, "geometry": {"type": "Point", "coordinates": [-73.79011109999999, 40.6952263]}}, {"type": "Feature", "properties": {"name": "China Garden Restaurant", "ch_rating": 5.0, "ch_count": 1.0, "all_rating": 4.0, "all_count": 117.0, "zip": "10472", "flushing": false}, "geometry": {"type": "Point", "coordinates": [-73.875699, 40.82954489999999]}}, {"type": "Feature", "properties": {"name": "China Tasty", "ch_rating": 5.0, "ch_count": 1.0, "all_rating": 4.3, "all_count": 144.0, "zip": "07204", "flushing": false}, "geometry": {"type": "Point", "coordinates": [-74.2678981, 40.6612968]}}, {"type": "Feature", "properties": {"name": "Joy Garden", "ch_rating": 5.0, "ch_count": 1.0, "all_rating": 3.9, "all_count": 181.0, "zip": "10462", "flushing": false}, "geometry": {"type": "Point", "coordinates": [-73.8664443, 40.8453175]}}, {"type": "Feature", "properties": {"name": "Ming Hui Chinese Restaurant", "ch_rating": 5.0, "ch_count": 1.0, "all_rating": 4.0, "all_count": 179.0, "zip": "08861", "flushing": false}, "geometry": {"type": "Point", "coordinates": [-74.2744276, 40.5106053]}}, {"type": "Feature", "properties": {"name": "New Dragon Star", "ch_rating": 5.0, "ch_count": 1.0, "all_rating": 3.8, "all_count": 113.0, "zip": "10466", "flushing": false}, "geometry": {"type": "Point", "coordinates": [-73.8585155, 40.8935945]}}, {"type": "Feature", "properties": {"name": "King Dragon", "ch_rating": 5.0, "ch_count": 1.0, "all_rating": 3.9, "all_count": 164.0, "zip": "10452", "flushing": false}, "geometry": {"type": "Point", "coordinates": [-73.9125139, 40.8431964]}}, {"type": "Feature", "properties": {"name": "Lotus Express", "ch_rating": 5.0, "ch_count": 1.0, "all_rating": 4.0, "all_count": 196.0, "zip": "10034", "flushing": false}, "geometry": {"type": "Point", "coordinates": [-73.9247149, 40.8662471]}}, {"type": "Feature", "properties": {"name": "Yummy City", "ch_rating": 5.0, "ch_count": 2.0, "all_rating": 4.4, "all_count": 185.0, "zip": "10029", "flushing": false}, "geometry": {"type": "Point", "coordinates": [-73.9492087, 40.7880204]}}, {"type": "Feature", "properties": {"name": "Xing Wang", "ch_rating": 5.0, "ch_count": 2.0, "all_rating": 4.1, "all_count": 113.0, "zip": "11206", "flushing": false}, "geometry": {"type": "Point", "coordinates": [-73.9362841, 40.6974224]}}, {"type": "Feature", "properties": {"name": "Dragon King", "ch_rating": 5.0, "ch_count": 2.0, "all_rating": 3.8, "all_count": 148.0, "zip": "11225", "flushing": false}, "geometry": {"type": "Point", "coordinates": [-73.9509854, 40.661749]}}, {"type": "Feature", "properties": {"name": "Kam Shing", "ch_rating": 5.0, "ch_count": 2.0, "all_rating": 4.0, "all_count": 168.0, "zip": "11230", "flushing": false}, "geometry": {"type": "Point", "coordinates": [-73.9609984, 40.62992759999999]}}, {"type": "Feature", "properties": {"name": "Hong Kong Express", "ch_rating": 5.0, "ch_count": 2.0, "all_rating": 4.0, "all_count": 140.0, "zip": "11385", "flushing": false}, "geometry": {"type": "Point", "coordinates": [-73.9046817, 40.69616449999999]}}, {"type": "Feature", "properties": {"name": "Wok Wok Chinese Restaurant", "ch_rating": 5.0, "ch_count": 2.0, "all_rating": 3.8, "all_count": 223.0, "zip": "10467", "flushing": false}, "geometry": {"type": "Point", "coordinates": [-73.8830947, 40.8806826]}}, {"type": "Feature", "properties": {"name": "China City", "ch_rating": 5.0, "ch_count": 2.0, "all_rating": 4.0, "all_count": 136.0, "zip": "10458", "flushing": false}, "geometry": {"type": "Point", "coordinates": [-73.8950169, 40.8605472]}}, {"type": "Feature", "properties": {"name": "King's Chef", "ch_rating": 5.0, "ch_count": 2.0, "all_rating": 4.0, "all_count": 199.0, "zip": "10459", "flushing": false}, "geometry": {"type": "Point", "coordinates": [-73.89921810000001, 40.82595329999999]}}, {"type": "Feature", "properties": {"name": "Xinglung", "ch_rating": 5.0, "ch_count": 2.0, "all_rating": 4.1, "all_count": 115.0, "zip": "10466", "flushing": false}, "geometry": {"type": "Point", "coordinates": [-73.83112779999999, 40.8888276]}}, {"type": "Feature", "properties": {"name": "New Choi Hee", "ch_rating": 5.0, "ch_count": 2.0, "all_rating": 3.3, "all_count": 113.0, "zip": "10304", "flushing": false}, "geometry": {"type": "Point", "coordinates": [-74.0762872, 40.6317703]}}, {"type": "Feature", "properties": {"name": "Panda Garden", "ch_rating": 5.0, "ch_count": 2.0, "all_rating": 4.2, "all_count": 119.0, "zip": "11209", "flushing": false}, "geometry": {"type": "Point", "coordinates": [-74.034403, 40.6157829]}}, {"type": "Feature", "properties": {"name": "Taste of China", "ch_rating": 5.0, "ch_count": 2.0, "all_rating": 3.8, "all_count": 105.0, "zip": "11373", "flushing": false}, "geometry": {"type": "Point", "coordinates": [-73.88451020000001, 40.7446358]}}, {"type": "Feature", "properties": {"name": "Wah Hing Kitchen", "ch_rating": 5.0, "ch_count": 2.0, "all_rating": 4.2, "all_count": 214.0, "zip": "11420", "flushing": false}, "geometry": {"type": "Point", "coordinates": [-73.812134, 40.6755911]}}, {"type": "Feature", "properties": {"name": "Six Happiness", "ch_rating": 5.0, "ch_count": 2.0, "all_rating": 4.4, "all_count": 214.0, "zip": "10461", "flushing": false}, "geometry": {"type": "Point", "coordinates": [-73.8294863, 40.8405835]}}, {"type": "Feature", "properties": {"name": "New York Chan", "ch_rating": 5.0, "ch_count": 2.0, "all_rating": 4.0, "all_count": 127.0, "zip": "11207", "flushing": false}, "geometry": {"type": "Point", "coordinates": [-73.882857, 40.666044]}}, {"type": "Feature", "properties": {"name": "Fortune Glatt Kosher Chinese Take Out", "ch_rating": 5.0, "ch_count": 2.0, "all_rating": 4.1, "all_count": 286.0, "zip": "11366", "flushing": true}, "geometry": {"type": "Point", "coordinates": [-73.787172, 40.727027]}}, {"type": "Feature", "properties": {"name": "Ho Mei", "ch_rating": 5.0, "ch_count": 2.0, "all_rating": 4.2, "all_count": 222.0, "zip": "11368", "flushing": true}, "geometry": {"type": "Point", "coordinates": [-73.8642043, 40.7534356]}}, {"type": "Feature", "properties": {"name": "King River", "ch_rating": 5.0, "ch_count": 2.0, "all_rating": 4.3, "all_count": 116.0, "zip": "11370", "flushing": false}, "geometry": {"type": "Point", "coordinates": [-73.8872257, 40.7589986]}}, {"type": "Feature", "properties": {"name": "Baji Baji", "ch_rating": 5.0, "ch_count": 3.0, "all_rating": 4.3, "all_count": 265.0, "zip": "10003", "flushing": false}, "geometry": {"type": "Point", "coordinates": [-73.9852007, 40.7281643]}}, {"type": "Feature", "properties": {"name": "King Dragon 188", "ch_rating": 5.0, "ch_count": 3.0, "all_rating": 4.0, "all_count": 146.0, "zip": "10029", "flushing": false}, "geometry": {"type": "Point", "coordinates": [-73.9502725, 40.7928241]}}, {"type": "Feature", "properties": {"name": "Golden Chopstick", "ch_rating": 5.0, "ch_count": 3.0, "all_rating": 4.1, "all_count": 142.0, "zip": "11238", "flushing": false}, "geometry": {"type": "Point", "coordinates": [-73.9573338, 40.6718517]}}, {"type": "Feature", "properties": {"name": "Dong Fang Kitchen", "ch_rating": 5.0, "ch_count": 3.0, "all_rating": 4.2, "all_count": 143.0, "zip": "11233", "flushing": false}, "geometry": {"type": "Point", "coordinates": [-73.921808, 40.674301]}}, {"type": "Feature", "properties": {"name": "China tastes\u7f8e\u5473", "ch_rating": 5.0, "ch_count": 3.0, "all_rating": 4.1, "all_count": 171.0, "zip": "11207", "flushing": false}, "geometry": {"type": "Point", "coordinates": [-73.89577109999999, 40.6694369]}}, {"type": "Feature", "properties": {"name": "Ming Wong", "ch_rating": 5.0, "ch_count": 3.0, "all_rating": 4.4, "all_count": 216.0, "zip": "10453", "flushing": false}, "geometry": {"type": "Point", "coordinates": [-73.908729, 40.8539561]}}, {"type": "Feature", "properties": {"name": "Good Taste Restaurant", "ch_rating": 5.0, "ch_count": 3.0, "all_rating": 4.1, "all_count": 161.0, "zip": "10459", "flushing": false}, "geometry": {"type": "Point", "coordinates": [-73.8966694, 40.82239819999999]}}, {"type": "Feature", "properties": {"name": "Lee's Chinese Kitchen", "ch_rating": 5.0, "ch_count": 3.0, "all_rating": 3.6, "all_count": 115.0, "zip": "10467", "flushing": false}, "geometry": {"type": "Point", "coordinates": [-73.8630593, 40.8712183]}}, {"type": "Feature", "properties": {"name": "New Oriental House", "ch_rating": 5.0, "ch_count": 3.0, "all_rating": 3.8, "all_count": 182.0, "zip": "10458", "flushing": false}, "geometry": {"type": "Point", "coordinates": [-73.89, 40.854679]}}, {"type": "Feature", "properties": {"name": "No. 1 China Wok", "ch_rating": 5.0, "ch_count": 3.0, "all_rating": 4.0, "all_count": 282.0, "zip": "10468", "flushing": false}, "geometry": {"type": "Point", "coordinates": [-73.9000066, 40.8678247]}}, {"type": "Feature", "properties": {"name": "Empire Szechuan", "ch_rating": 5.0, "ch_count": 3.0, "all_rating": 3.8, "all_count": 163.0, "zip": "10302", "flushing": false}, "geometry": {"type": "Point", "coordinates": [-74.1372183, 40.6259465]}}, {"type": "Feature", "properties": {"name": "Mr. Rice", "ch_rating": 5.0, "ch_count": 3.0, "all_rating": 3.9, "all_count": 116.0, "zip": "10302", "flushing": false}, "geometry": {"type": "Point", "coordinates": [-74.140554, 40.62992430000001]}}, {"type": "Feature", "properties": {"name": "China Star", "ch_rating": 5.0, "ch_count": 3.0, "all_rating": 3.8, "all_count": 119.0, "zip": "11432", "flushing": false}, "geometry": {"type": "Point", "coordinates": [-73.80259459999999, 40.7142519]}}, {"type": "Feature", "properties": {"name": "Szechuan Kitchen III", "ch_rating": 5.0, "ch_count": 3.0, "all_rating": 4.0, "all_count": 103.0, "zip": "11429", "flushing": false}, "geometry": {"type": "Point", "coordinates": [-73.7400311, 40.7052578]}}, {"type": "Feature", "properties": {"name": "Li's Kitchen", "ch_rating": 5.0, "ch_count": 3.0, "all_rating": 4.2, "all_count": 176.0, "zip": "10469", "flushing": false}, "geometry": {"type": "Point", "coordinates": [-73.8585612, 40.8634698]}}, {"type": "Feature", "properties": {"name": "Jimmy Best Chinese", "ch_rating": 5.0, "ch_count": 3.0, "all_rating": 4.4, "all_count": 376.0, "zip": "10475", "flushing": false}, "geometry": {"type": "Point", "coordinates": [-73.8330495, 40.883891]}}, {"type": "Feature", "properties": {"name": "Eastern Chinese Style", "ch_rating": 5.0, "ch_count": 3.0, "all_rating": 4.7, "all_count": 123.0, "zip": "10456", "flushing": false}, "geometry": {"type": "Point", "coordinates": [-73.915092, 40.833896]}}, {"type": "Feature", "properties": {"name": "China Kitchen", "ch_rating": 5.0, "ch_count": 3.0, "all_rating": 4.2, "all_count": 103.0, "zip": "10467", "flushing": false}, "geometry": {"type": "Point", "coordinates": [-73.86572629999999, 40.8597107]}}, {"type": "Feature", "properties": {"name": "City Island Chinese Restaurant", "ch_rating": 5.0, "ch_count": 3.0, "all_rating": 4.1, "all_count": 117.0, "zip": "10464", "flushing": false}, "geometry": {"type": "Point", "coordinates": [-73.78357849999999, 40.8401249]}}, {"type": "Feature", "properties": {"name": "New Asian Cuisine", "ch_rating": 5.0, "ch_count": 3.0, "all_rating": 4.1, "all_count": 128.0, "zip": "11377", "flushing": false}, "geometry": {"type": "Point", "coordinates": [-73.9205437, 40.7393143]}}, {"type": "Feature", "properties": {"name": "Francesca Chinese Restaurant", "ch_rating": 5.0, "ch_count": 4.0, "all_rating": 4.1, "all_count": 141.0, "zip": "07087", "flushing": false}, "geometry": {"type": "Point", "coordinates": [-74.03240269999999, 40.7680421]}}, {"type": "Feature", "properties": {"name": "New Sunrise", "ch_rating": 5.0, "ch_count": 4.0, "all_rating": 4.1, "all_count": 178.0, "zip": "07002", "flushing": false}, "geometry": {"type": "Point", "coordinates": [-74.1280479, 40.65178119999999]}}, {"type": "Feature", "properties": {"name": "Linden Garden Chinese Restaurant", "ch_rating": 5.0, "ch_count": 4.0, "all_rating": 4.1, "all_count": 202.0, "zip": "07036", "flushing": false}, "geometry": {"type": "Point", "coordinates": [-74.2713739, 40.6277866]}}, {"type": "Feature", "properties": {"name": "Lee's Restaurant", "ch_rating": 5.0, "ch_count": 4.0, "all_rating": 4.3, "all_count": 125.0, "zip": "10458", "flushing": false}, "geometry": {"type": "Point", "coordinates": [-73.8866604, 40.8549843]}}, {"type": "Feature", "properties": {"name": "Lucky House", "ch_rating": 5.0, "ch_count": 4.0, "all_rating": 4.3, "all_count": 159.0, "zip": "10460", "flushing": false}, "geometry": {"type": "Point", "coordinates": [-73.8753189, 40.8401115]}}, {"type": "Feature", "properties": {"name": "Golden Chef", "ch_rating": 5.0, "ch_count": 4.0, "all_rating": 4.1, "all_count": 137.0, "zip": "10461", "flushing": false}, "geometry": {"type": "Point", "coordinates": [-73.830601, 40.845033]}}, {"type": "Feature", "properties": {"name": "New Joy Garden", "ch_rating": 5.0, "ch_count": 4.0, "all_rating": 3.6, "all_count": 101.0, "zip": "11207", "flushing": false}, "geometry": {"type": "Point", "coordinates": [-73.8980677, 40.6624419]}}, {"type": "Feature", "properties": {"name": "Hong Kong Kitchen", "ch_rating": 5.0, "ch_count": 4.0, "all_rating": 3.7, "all_count": 122.0, "zip": "07206", "flushing": false}, "geometry": {"type": "Point", "coordinates": [-74.1896603, 40.6498146]}}, {"type": "Feature", "properties": {"name": "Empire Szechuan Garden", "ch_rating": 5.0, "ch_count": 4.0, "all_rating": 4.4, "all_count": 152.0, "zip": "11104", "flushing": false}, "geometry": {"type": "Point", "coordinates": [-73.9187827, 40.7436611]}}, {"type": "Feature", "properties": {"name": "Yummy Yummy Chinese Restaurant", "ch_rating": 5.0, "ch_count": 4.0, "all_rating": 3.7, "all_count": 133.0, "zip": "11378", "flushing": false}, "geometry": {"type": "Point", "coordinates": [-73.8999324, 40.731559]}}, {"type": "Feature", "properties": {"name": "New Hop Shing Kitchen", "ch_rating": 5.0, "ch_count": 5.0, "all_rating": 4.5, "all_count": 147.0, "zip": "11207", "flushing": false}, "geometry": {"type": "Point", "coordinates": [-73.8991767, 40.6673665]}}, {"type": "Feature", "properties": {"name": "New China", "ch_rating": 5.0, "ch_count": 5.0, "all_rating": 4.2, "all_count": 112.0, "zip": "11206", "flushing": false}, "geometry": {"type": "Point", "coordinates": [-73.9361284, 40.697057]}}, {"type": "Feature", "properties": {"name": "Sunrise East Chinese Cuisine", "ch_rating": 5.0, "ch_count": 5.0, "all_rating": 4.5, "all_count": 126.0, "zip": "11211", "flushing": false}, "geometry": {"type": "Point", "coordinates": [-73.949322, 40.71095469999999]}}, {"type": "Feature", "properties": {"name": "New Foo Shun", "ch_rating": 5.0, "ch_count": 5.0, "all_rating": 3.7, "all_count": 146.0, "zip": "11208", "flushing": false}, "geometry": {"type": "Point", "coordinates": [-73.8785797, 40.6742637]}}, {"type": "Feature", "properties": {"name": "El Pabellon De Oro", "ch_rating": 5.0, "ch_count": 5.0, "all_rating": 4.5, "all_count": 1022.0, "zip": "10472", "flushing": false}, "geometry": {"type": "Point", "coordinates": [-73.8799894, 40.828662]}}, {"type": "Feature", "properties": {"name": "Sun Wah", "ch_rating": 5.0, "ch_count": 5.0, "all_rating": 3.8, "all_count": 184.0, "zip": "11106", "flushing": false}, "geometry": {"type": "Point", "coordinates": [-73.9301531, 40.7565428]}}, {"type": "Feature", "properties": {"name": "Panda Garden", "ch_rating": 5.0, "ch_count": 5.0, "all_rating": 4.2, "all_count": 101.0, "zip": "11377", "flushing": false}, "geometry": {"type": "Point", "coordinates": [-73.90468179999999, 40.7455811]}}, {"type": "Feature", "properties": {"name": "China Garden", "ch_rating": 5.0, "ch_count": 6.0, "all_rating": 4.4, "all_count": 133.0, "zip": "11237", "flushing": false}, "geometry": {"type": "Point", "coordinates": [-73.9215394, 40.7033261]}}, {"type": "Feature", "properties": {"name": "New Nice China Town", "ch_rating": 5.0, "ch_count": 6.0, "all_rating": 4.2, "all_count": 245.0, "zip": "11230", "flushing": false}, "geometry": {"type": "Point", "coordinates": [-73.963577, 40.6339855]}}, {"type": "Feature", "properties": {"name": "East Met West", "ch_rating": 5.0, "ch_count": 6.0, "all_rating": 3.9, "all_count": 170.0, "zip": "11211", "flushing": false}, "geometry": {"type": "Point", "coordinates": [-73.9439234, 40.7143776]}}, {"type": "Feature", "properties": {"name": "Empire King", "ch_rating": 5.0, "ch_count": 6.0, "all_rating": 4.3, "all_count": 123.0, "zip": "10456", "flushing": false}, "geometry": {"type": "Point", "coordinates": [-73.898194, 40.8323837]}}, {"type": "Feature", "properties": {"name": "New Win Hing", "ch_rating": 5.0, "ch_count": 6.0, "all_rating": 4.2, "all_count": 133.0, "zip": "10305", "flushing": false}, "geometry": {"type": "Point", "coordinates": [-74.06659599999999, 40.614368]}}, {"type": "Feature", "properties": {"name": "Loon Chuan Chinese Restaurant", "ch_rating": 5.0, "ch_count": 6.0, "all_rating": 3.7, "all_count": 171.0, "zip": "10309", "flushing": false}, "geometry": {"type": "Point", "coordinates": [-74.234599, 40.522215]}}, {"type": "Feature", "properties": {"name": "Panda China Restaurant", "ch_rating": 5.0, "ch_count": 6.0, "all_rating": 4.2, "all_count": 179.0, "zip": "07065", "flushing": false}, "geometry": {"type": "Point", "coordinates": [-74.2838021, 40.61722169999999]}}, {"type": "Feature", "properties": {"name": "Di Di", "ch_rating": 5.0, "ch_count": 6.0, "all_rating": 4.5, "all_count": 190.0, "zip": "11210", "flushing": false}, "geometry": {"type": "Point", "coordinates": [-73.9473733, 40.6282032]}}, {"type": "Feature", "properties": {"name": "Lucky Star", "ch_rating": 5.0, "ch_count": 6.0, "all_rating": 4.1, "all_count": 167.0, "zip": "11412", "flushing": false}, "geometry": {"type": "Point", "coordinates": [-73.74712029999999, 40.6959975]}}, {"type": "Feature", "properties": {"name": "Aanch Indian & Asian Fusion", "ch_rating": 5.0, "ch_count": 6.0, "all_rating": 4.7, "all_count": 425.0, "zip": "11004", "flushing": false}, "geometry": {"type": "Point", "coordinates": [-73.70997330000002, 40.7374625]}}, {"type": "Feature", "properties": {"name": "Wa Lung Kitchen", "ch_rating": 5.0, "ch_count": 7.0, "all_rating": 3.8, "all_count": 261.0, "zip": "10002", "flushing": false}, "geometry": {"type": "Point", "coordinates": [-73.9802259, 40.7139086]}}, {"type": "Feature", "properties": {"name": "Yummy Chinese Food", "ch_rating": 5.0, "ch_count": 7.0, "all_rating": 4.3, "all_count": 203.0, "zip": "11225", "flushing": false}, "geometry": {"type": "Point", "coordinates": [-73.9508759, 40.6643067]}}, {"type": "Feature", "properties": {"name": "Wild Ginger", "ch_rating": 5.0, "ch_count": 7.0, "all_rating": 4.2, "all_count": 367.0, "zip": "11211", "flushing": false}, "geometry": {"type": "Point", "coordinates": [-73.9553339, 40.71890339999999]}}, {"type": "Feature", "properties": {"name": "Excellent Taste Restaurant", "ch_rating": 5.0, "ch_count": 7.0, "all_rating": 3.5, "all_count": 162.0, "zip": "10466", "flushing": false}, "geometry": {"type": "Point", "coordinates": [-73.85503469999999, 40.8972996]}}, {"type": "Feature", "properties": {"name": "Ling Gee", "ch_rating": 5.0, "ch_count": 8.0, "all_rating": 4.0, "all_count": 115.0, "zip": "11231", "flushing": false}, "geometry": {"type": "Point", "coordinates": [-74.0108005, 40.67894740000001]}}, {"type": "Feature", "properties": {"name": "New King House", "ch_rating": 5.0, "ch_count": 8.0, "all_rating": 4.3, "all_count": 135.0, "zip": "11368", "flushing": true}, "geometry": {"type": "Point", "coordinates": [-73.855417, 40.752027]}}, {"type": "Feature", "properties": {"name": "Asian Bay", "ch_rating": 5.0, "ch_count": 8.0, "all_rating": 4.0, "all_count": 206.0, "zip": "11235", "flushing": false}, "geometry": {"type": "Point", "coordinates": [-73.95114989999999, 40.585036]}}, {"type": "Feature", "properties": {"name": "China King", "ch_rating": 5.0, "ch_count": 8.0, "all_rating": 3.9, "all_count": 169.0, "zip": "11432", "flushing": false}, "geometry": {"type": "Point", "coordinates": [-73.786208, 40.712244]}}, {"type": "Feature", "properties": {"name": "Mr Wonton", "ch_rating": 5.0, "ch_count": 8.0, "all_rating": 3.7, "all_count": 114.0, "zip": "11104", "flushing": false}, "geometry": {"type": "Point", "coordinates": [-73.9199685, 40.7436417]}}, {"type": "Feature", "properties": {"name": "Wei\u2019s - Fort Greene", "ch_rating": 5.0, "ch_count": 10.0, "all_rating": 4.5, "all_count": 123.0, "zip": "11238", "flushing": false}, "geometry": {"type": "Point", "coordinates": [-73.9656912, 40.68306339999999]}}, {"type": "Feature", "properties": {"name": "Peking", "ch_rating": 5.0, "ch_count": 10.0, "all_rating": 4.2, "all_count": 208.0, "zip": "11428", "flushing": false}, "geometry": {"type": "Point", "coordinates": [-73.7399796, 40.7256224]}}, {"type": "Feature", "properties": {"name": "Peking Taste", "ch_rating": 5.0, "ch_count": 10.0, "all_rating": 4.0, "all_count": 144.0, "zip": "10312", "flushing": false}, "geometry": {"type": "Point", "coordinates": [-74.1926419, 40.5531694]}}, {"type": "Feature", "properties": {"name": "Happy Fortune", "ch_rating": 5.0, "ch_count": 11.0, "all_rating": 3.6, "all_count": 142.0, "zip": "10314", "flushing": false}, "geometry": {"type": "Point", "coordinates": [-74.1217997, 40.60853669999999]}}, {"type": "Feature", "properties": {"name": "Islander Taste Chinese Restaurant", "ch_rating": 5.0, "ch_count": 16.0, "all_rating": 4.1, "all_count": 133.0, "zip": "10309", "flushing": false}, "geometry": {"type": "Point", "coordinates": [-74.20779809999999, 40.542817]}}, {"type": "Feature", "properties": {"name": "Pic Up Stix", "ch_rating": 5.0, "ch_count": 23.0, "all_rating": 4.2, "all_count": 192.0, "zip": "10128", "flushing": false}, "geometry": {"type": "Point", "coordinates": [-73.9536394, 40.7825844]}}, {"type": "Feature", "properties": {"name": "Sol Delish", "ch_rating": 5.0, "ch_count": 31.0, "all_rating": 4.9, "all_count": 266.0, "zip": "11216", "flushing": false}, "geometry": {"type": "Point", "coordinates": [-73.9488898, 40.680575]}}, {"type": "Feature", "properties": {"name": "Liu Ji Sichuan Noodle House", "ch_rating": 4.96428571428571, "ch_count": 28.0, "all_rating": 4.9, "all_count": 116.0, "zip": "11356", "flushing": true}, "geometry": {"type": "Point", "coordinates": [-73.845674, 40.781256]}}, {"type": "Feature", "properties": {"name": "Mala Town", "ch_rating": 4.9627659574468, "ch_count": 564.0, "all_rating": 4.9, "all_count": 1121.0, "zip": "10025", "flushing": false}, "geometry": {"type": "Point", "coordinates": [-73.96562399999999, 40.80005970000001]}}, {"type": "Feature", "properties": {"name": "Twilight Lounge \u671d\u66ae", "ch_rating": 4.95454545454545, "ch_count": 22.0, "all_rating": 4.9, "all_count": 122.0, "zip": "10009", "flushing": false}, "geometry": {"type": "Point", "coordinates": [-73.9857509, 40.726696]}}, {"type": "Feature", "properties": {"name": "Mama's Noodle House", "ch_rating": 4.95, "ch_count": 20.0, "all_rating": 4.8, "all_count": 108.0, "zip": "11204", "flushing": false}, "geometry": {"type": "Point", "coordinates": [-73.9929107, 40.6168878]}}, {"type": "Feature", "properties": {"name": "Chang Lai", "ch_rating": 4.93311036789297, "ch_count": 299.0, "all_rating": 4.9, "all_count": 1153.0, "zip": "10013", "flushing": false}, "geometry": {"type": "Point", "coordinates": [-73.9978715, 40.7151801]}}, {"type": "Feature", "properties": {"name": "Dynasty Taste", "ch_rating": 4.92857142857142, "ch_count": 14.0, "all_rating": 4.0, "all_count": 156.0, "zip": "10314", "flushing": false}, "geometry": {"type": "Point", "coordinates": [-74.16526089999999, 40.5879905]}}, {"type": "Feature", "properties": {"name": "The Best Sichuan \u4e00\u54c1\u6210\u90fd21", "ch_rating": 4.91839557399723, "ch_count": 723.0, "all_rating": 4.9, "all_count": 2844.0, "zip": "10010", "flushing": false}, "geometry": {"type": "Point", "coordinates": [-73.98913809999999, 40.7394389]}}, {"type": "Feature", "properties": {"name": "Great Wall", "ch_rating": 4.91666666666666, "ch_count": 12.0, "all_rating": 4.1, "all_count": 170.0, "zip": "11375", "flushing": false}, "geometry": {"type": "Point", "coordinates": [-73.8478741, 40.7237598]}}, {"type": "Feature", "properties": {"name": "Chun Vegetarian", "ch_rating": 4.9090909090909, "ch_count": 11.0, "all_rating": 4.6, "all_count": 135.0, "zip": "11216", "flushing": false}, "geometry": {"type": "Point", "coordinates": [-73.94986879999999, 40.6788289]}}, {"type": "Feature", "properties": {"name": "DONGBEI Restaurant & Bar\u4e1c\u5317\u9910\u5385&\u9152\u5427", "ch_rating": 4.90523690773067, "ch_count": 401.0, "all_rating": 4.9, "all_count": 761.0, "zip": "10018", "flushing": false}, "geometry": {"type": "Point", "coordinates": [-73.9949697, 40.75466]}}, {"type": "Feature", "properties": {"name": "Nuevo Jard\u00edn de China", "ch_rating": 4.9047619047619, "ch_count": 21.0, "all_rating": 4.5, "all_count": 529.0, "zip": "11106", "flushing": false}, "geometry": {"type": "Point", "coordinates": [-73.9242308, 40.76165040000001]}}, {"type": "Feature", "properties": {"name": "Niukee Shumai", "ch_rating": 4.90243902439024, "ch_count": 164.0, "all_rating": 4.9, "all_count": 386.0, "zip": "10013", "flushing": false}, "geometry": {"type": "Point", "coordinates": [-73.997103, 40.72075460000001]}}, {"type": "Feature", "properties": {"name": "ChiChicken \u5403\u9e21", "ch_rating": 4.9017199017199, "ch_count": 407.0, "all_rating": 4.9, "all_count": 649.0, "zip": "11101", "flushing": false}, "geometry": {"type": "Point", "coordinates": [-73.9398664, 40.7485243]}}, {"type": "Feature", "properties": {"name": "Taste of China", "ch_rating": 4.9, "ch_count": 20.0, "all_rating": 4.5, "all_count": 156.0, "zip": "10306", "flushing": false}, "geometry": {"type": "Point", "coordinates": [-74.12784649999999, 40.5645648]}}, {"type": "Feature", "properties": {"name": "Aves Thai & Asian Fusion restaurant", "ch_rating": 4.89743589743589, "ch_count": 39.0, "all_rating": 4.6, "all_count": 185.0, "zip": "10024", "flushing": false}, "geometry": {"type": "Point", "coordinates": [-73.97266929999999, 40.7862818]}}, {"type": "Feature", "properties": {"name": "DAO Dim Sum & Chinese Cuisine", "ch_rating": 4.89637305699481, "ch_count": 193.0, "all_rating": 4.8, "all_count": 1634.0, "zip": "10016", "flushing": false}, "geometry": {"type": "Point", "coordinates": [-73.9830048, 40.7473619]}}, {"type": "Feature", "properties": {"name": "Kai-Ying", "ch_rating": 4.89473684210526, "ch_count": 19.0, "all_rating": 4.4, "all_count": 170.0, "zip": "11356", "flushing": true}, "geometry": {"type": "Point", "coordinates": [-73.84578239999999, 40.7824914]}}, {"type": "Feature", "properties": {"name": "Zhe Zhe Pot \u556b\u98df\u574a", "ch_rating": 4.89240506329113, "ch_count": 158.0, "all_rating": 4.8, "all_count": 382.0, "zip": "11214", "flushing": false}, "geometry": {"type": "Point", "coordinates": [-73.99949099999999, 40.6055818]}}, {"type": "Feature", "properties": {"name": "Loong Noodles", "ch_rating": 4.89189189189189, "ch_count": 37.0, "all_rating": 4.6, "all_count": 116.0, "zip": "10003", "flushing": false}, "geometry": {"type": "Point", "coordinates": [-73.98861520000001, 40.7287947]}}, {"type": "Feature", "properties": {"name": "Chen's Garden", "ch_rating": 4.88888888888888, "ch_count": 9.0, "all_rating": 4.5, "all_count": 137.0, "zip": "11372", "flushing": false}, "geometry": {"type": "Point", "coordinates": [-73.8732165, 40.7566771]}}, {"type": "Feature", "properties": {"name": "JiBeiChuan Noodles(Flushing)\u5b63\u5317\u5ddd\u82b1\u80f6\u6c64\u7c73\u7c89 (\u6cd5\u62c9\u76db\u5e97)", "ch_rating": 4.88385269121813, "ch_count": 353.0, "all_rating": 4.7, "all_count": 781.0, "zip": "11354", "flushing": true}, "geometry": {"type": "Point", "coordinates": [-73.8326465, 40.7598978]}}, {"type": "Feature", "properties": {"name": "Grand Street Skewer Cart", "ch_rating": 4.87692307692307, "ch_count": 65.0, "all_rating": 4.9, "all_count": 282.0, "zip": "10002", "flushing": false}, "geometry": {"type": "Point", "coordinates": [-73.99415239999999, 40.7183814]}}, {"type": "Feature", "properties": {"name": "Taste of China", "ch_rating": 4.875, "ch_count": 8.0, "all_rating": 4.4, "all_count": 308.0, "zip": "11103", "flushing": false}, "geometry": {"type": "Point", "coordinates": [-73.91472929999999, 40.7571989]}}, {"type": "Feature", "properties": {"name": "Jardin De China", "ch_rating": 4.875, "ch_count": 8.0, "all_rating": 4.5, "all_count": 1347.0, "zip": "11368", "flushing": true}, "geometry": {"type": "Point", "coordinates": [-73.8701136, 40.7506405]}}, {"type": "Feature", "properties": {"name": "Great Wall Chinese Restaurant", "ch_rating": 4.875, "ch_count": 8.0, "all_rating": 3.9, "all_count": 230.0, "zip": "07208", "flushing": false}, "geometry": {"type": "Point", "coordinates": [-74.2099628, 40.67836090000001]}}, {"type": "Feature", "properties": {"name": "King Wah", "ch_rating": 4.875, "ch_count": 8.0, "all_rating": 4.0, "all_count": 445.0, "zip": "11377", "flushing": false}, "geometry": {"type": "Point", "coordinates": [-73.896991, 40.754583]}}, {"type": "Feature", "properties": {"name": "Tin Wong Restaurant", "ch_rating": 4.875, "ch_count": 24.0, "all_rating": 4.5, "all_count": 142.0, "zip": "10013", "flushing": false}, "geometry": {"type": "Point", "coordinates": [-73.9961027, 40.7174369]}}, {"type": "Feature", "properties": {"name": "Ji Bei Chuan Noodles \u5b63\u5317\u5ddd BK 86", "ch_rating": 4.875, "ch_count": 136.0, "all_rating": 4.7, "all_count": 340.0, "zip": "11214", "flushing": false}, "geometry": {"type": "Point", "coordinates": [-73.9929488, 40.6011834]}}, {"type": "Feature", "properties": {"name": "Bao Bao Cafe", "ch_rating": 4.86796116504854, "ch_count": 515.0, "all_rating": 4.8, "all_count": 2508.0, "zip": "10018", "flushing": false}, "geometry": {"type": "Point", "coordinates": [-73.9890502, 40.7543274]}}, {"type": "Feature", "properties": {"name": "Baohub", "ch_rating": 4.86363636363636, "ch_count": 22.0, "all_rating": 4.6, "all_count": 238.0, "zip": "10003", "flushing": false}, "geometry": {"type": "Point", "coordinates": [-73.98211599999999, 40.7322825]}}, {"type": "Feature", "properties": {"name": "Dumpling Xi \u559c\u5bb6\u5fb7\u6c34\u997a", "ch_rating": 4.86170212765957, "ch_count": 94.0, "all_rating": 4.8, "all_count": 238.0, "zip": "10003", "flushing": false}, "geometry": {"type": "Point", "coordinates": [-73.99023, 40.7310255]}}, {"type": "Feature", "properties": {"name": "Tak King", "ch_rating": 4.85714285714285, "ch_count": 7.0, "all_rating": 3.9, "all_count": 191.0, "zip": "11216", "flushing": false}, "geometry": {"type": "Point", "coordinates": [-73.9466241, 40.6804227]}}, {"type": "Feature", "properties": {"name": "Indika House", "ch_rating": 4.85714285714285, "ch_count": 7.0, "all_rating": 4.6, "all_count": 383.0, "zip": "11206", "flushing": false}, "geometry": {"type": "Point", "coordinates": [-73.9353594, 40.6971935]}}, {"type": "Feature", "properties": {"name": "Chinese Musician", "ch_rating": 4.85714285714285, "ch_count": 7.0, "all_rating": 3.8, "all_count": 242.0, "zip": "11222", "flushing": false}, "geometry": {"type": "Point", "coordinates": [-73.95374129999999, 40.730412]}}, {"type": "Feature", "properties": {"name": "Hong Kong Cafe", "ch_rating": 4.85714285714285, "ch_count": 14.0, "all_rating": 4.6, "all_count": 210.0, "zip": "11238", "flushing": false}, "geometry": {"type": "Point", "coordinates": [-73.9566699, 40.687199]}}, {"type": "Feature", "properties": {"name": "Yi Poh Kitchen Asian Cuisine", "ch_rating": 4.85714285714285, "ch_count": 224.0, "all_rating": 4.8, "all_count": 540.0, "zip": "11219", "flushing": false}, "geometry": {"type": "Point", "coordinates": [-74.00557479999999, 40.6287642]}}, {"type": "Feature", "properties": {"name": "The Best Sichuan", "ch_rating": 4.85384615384615, "ch_count": 1040.0, "all_rating": 4.8, "all_count": 2831.0, "zip": "10017", "flushing": false}, "geometry": {"type": "Point", "coordinates": [-73.97774580000001, 40.7565702]}}, {"type": "Feature", "properties": {"name": "\u5e78\u70e9 Yao\u2019s Kitchen", "ch_rating": 4.85, "ch_count": 20.0, "all_rating": 4.6, "all_count": 118.0, "zip": "10310", "flushing": false}, "geometry": {"type": "Point", "coordinates": [-74.1142464, 40.6289037]}}, {"type": "Feature", "properties": {"name": "LHASA LIANG FEN", "ch_rating": 4.84615384615384, "ch_count": 26.0, "all_rating": 4.5, "all_count": 403.0, "zip": "11373", "flushing": false}, "geometry": {"type": "Point", "coordinates": [-73.8847536, 40.7439683]}}, {"type": "Feature", "properties": {"name": "Lion Dance", "ch_rating": 4.84615384615384, "ch_count": 26.0, "all_rating": 4.9, "all_count": 196.0, "zip": "10301", "flushing": false}, "geometry": {"type": "Point", "coordinates": [-74.1031536, 40.6162059]}}, {"type": "Feature", "properties": {"name": "New Ipoh Kitchen Asian Cuisine", "ch_rating": 4.845, "ch_count": 400.0, "all_rating": 4.8, "all_count": 1038.0, "zip": "11204", "flushing": false}, "geometry": {"type": "Point", "coordinates": [-73.9854019, 40.6166739]}}, {"type": "Feature", "properties": {"name": "\u9c7c\u4f60\u5728\u4e00\u8d77 \uff08\u6cd5\u62c9\u76db\uff09 Fish With You | Sauerkraut Fish \u9178\u83dc\u9c7c", "ch_rating": 4.84418604651162, "ch_count": 860.0, "all_rating": 4.8, "all_count": 1667.0, "zip": "11354", "flushing": true}, "geometry": {"type": "Point", "coordinates": [-73.8306868, 40.7587839]}}, {"type": "Feature", "properties": {"name": "Super Taste", "ch_rating": 4.84375, "ch_count": 32.0, "all_rating": 4.7, "all_count": 228.0, "zip": "10075", "flushing": false}, "geometry": {"type": "Point", "coordinates": [-73.9527208, 40.7718429]}}, {"type": "Feature", "properties": {"name": "Dim Sum Sam", "ch_rating": 4.84191176470588, "ch_count": 544.0, "all_rating": 4.7, "all_count": 1919.0, "zip": "10010", "flushing": false}, "geometry": {"type": "Point", "coordinates": [-73.98780579999999, 40.740559]}}, {"type": "Feature", "properties": {"name": "Tsing Garden Chinese Restaurant", "ch_rating": 4.83333333333333, "ch_count": 6.0, "all_rating": 4.1, "all_count": 114.0, "zip": "07093", "flushing": false}, "geometry": {"type": "Point", "coordinates": [-74.00627949999999, 40.7893051]}}, {"type": "Feature", "properties": {"name": "China Restaurant", "ch_rating": 4.83333333333333, "ch_count": 6.0, "all_rating": 4.2, "all_count": 682.0, "zip": "11203", "flushing": false}, "geometry": {"type": "Point", "coordinates": [-73.92999999999999, 40.6502778]}}, {"type": "Feature", "properties": {"name": "East Star", "ch_rating": 4.83333333333333, "ch_count": 6.0, "all_rating": 3.9, "all_count": 144.0, "zip": "10459", "flushing": false}, "geometry": {"type": "Point", "coordinates": [-73.8944559, 40.82367869999999]}}, {"type": "Feature", "properties": {"name": "CHINA WOK CARTERET", "ch_rating": 4.83333333333333, "ch_count": 6.0, "all_rating": 4.4, "all_count": 118.0, "zip": "07008", "flushing": false}, "geometry": {"type": "Point", "coordinates": [-74.2272716, 40.5876969]}}, {"type": "Feature", "properties": {"name": "No 1 Chinese Kitchen", "ch_rating": 4.83333333333333, "ch_count": 6.0, "all_rating": 3.9, "all_count": 109.0, "zip": "10305", "flushing": false}, "geometry": {"type": "Point", "coordinates": [-74.0842435, 40.5971696]}}, {"type": "Feature", "properties": {"name": "Master Wonton", "ch_rating": 4.83333333333333, "ch_count": 6.0, "all_rating": 3.9, "all_count": 154.0, "zip": "11204", "flushing": false}, "geometry": {"type": "Point", "coordinates": [-73.97437049999999, 40.6144067]}}, {"type": "Feature", "properties": {"name": "Dragon Garden", "ch_rating": 4.83333333333333, "ch_count": 12.0, "all_rating": 4.5, "all_count": 173.0, "zip": "11214", "flushing": false}, "geometry": {"type": "Point", "coordinates": [-73.999512, 40.610222]}}, {"type": "Feature", "properties": {"name": "King\u2019s Wok Chinese Food", "ch_rating": 4.83333333333333, "ch_count": 12.0, "all_rating": 4.2, "all_count": 128.0, "zip": "11377", "flushing": false}, "geometry": {"type": "Point", "coordinates": [-73.9074754, 40.7602289]}}, {"type": "Feature", "properties": {"name": "Old Sport Food", "ch_rating": 4.83333333333333, "ch_count": 78.0, "all_rating": 4.7, "all_count": 371.0, "zip": "11375", "flushing": false}, "geometry": {"type": "Point", "coordinates": [-73.85535229999999, 40.7242182]}}, {"type": "Feature", "properties": {"name": "OK Canaan Taiwanese Gourmet \u53f0\u7063\u597d\u6ecb\u5473", "ch_rating": 4.82828282828282, "ch_count": 99.0, "all_rating": 4.6, "all_count": 239.0, "zip": "11355", "flushing": true}, "geometry": {"type": "Point", "coordinates": [-73.8268011, 40.7520921]}}, {"type": "Feature", "properties": {"name": "Antidote", "ch_rating": 4.82460732984293, "ch_count": 382.0, "all_rating": 4.8, "all_count": 2055.0, "zip": "11249", "flushing": false}, "geometry": {"type": "Point", "coordinates": [-73.9654481, 40.7142531]}}, {"type": "Feature", "properties": {"name": "O Ramen & Dim Sum M Yuki Sushi", "ch_rating": 4.8235294117647, "ch_count": 17.0, "all_rating": 4.7, "all_count": 252.0, "zip": "10002", "flushing": false}, "geometry": {"type": "Point", "coordinates": [-73.9923491, 40.7160932]}}, {"type": "Feature", "properties": {"name": "Xie Bao Flushing \u87f9\u5bf6", "ch_rating": 4.82210242587601, "ch_count": 371.0, "all_rating": 4.7, "all_count": 681.0, "zip": "11354", "flushing": true}, "geometry": {"type": "Point", "coordinates": [-73.8331334, 40.7588367]}}, {"type": "Feature", "properties": {"name": "Sky Pavilion \u5ddd\u96f2\u6da7", "ch_rating": 4.81218274111675, "ch_count": 197.0, "all_rating": 4.7, "all_count": 437.0, "zip": "10036", "flushing": false}, "geometry": {"type": "Point", "coordinates": [-73.9908378, 40.7580097]}}, {"type": "Feature", "properties": {"name": "DD Soup Dumpling & FuJi Hibachi", "ch_rating": 4.81045751633986, "ch_count": 306.0, "all_rating": 4.7, "all_count": 2822.0, "zip": "10036", "flushing": false}, "geometry": {"type": "Point", "coordinates": [-73.99069999999999, 40.75791299999999]}}, {"type": "Feature", "properties": {"name": "LUNAR", "ch_rating": 4.80945757997218, "ch_count": 719.0, "all_rating": 4.7, "all_count": 1218.0, "zip": "10016", "flushing": false}, "geometry": {"type": "Point", "coordinates": [-73.982317, 40.7497992]}}, {"type": "Feature", "properties": {"name": "\u79a7\u60a6\u6703\u6d77\u9c9c\u81ea\u52a9\u706b\u9505 XI YUE HUI HOT POT", "ch_rating": 4.80434782608695, "ch_count": 828.0, "all_rating": 4.8, "all_count": 1570.0, "zip": "11220", "flushing": false}, "geometry": {"type": "Point", "coordinates": [-74.0112831, 40.6325948]}}, {"type": "Feature", "properties": {"name": "Breeze", "ch_rating": 4.80232558139534, "ch_count": 86.0, "all_rating": 4.8, "all_count": 458.0, "zip": "11222", "flushing": false}, "geometry": {"type": "Point", "coordinates": [-73.95061489999999, 40.7230018]}}, {"type": "Feature", "properties": {"name": "Wing Cheong", "ch_rating": 4.8, "ch_count": 5.0, "all_rating": 4.6, "all_count": 349.0, "zip": "11216", "flushing": false}, "geometry": {"type": "Point", "coordinates": [-73.9455406, 40.6803509]}}, {"type": "Feature", "properties": {"name": "Yummy", "ch_rating": 4.8, "ch_count": 5.0, "all_rating": 3.9, "all_count": 142.0, "zip": "11226", "flushing": false}, "geometry": {"type": "Point", "coordinates": [-73.9558954, 40.6410403]}}, {"type": "Feature", "properties": {"name": "Peking Express", "ch_rating": 4.8, "ch_count": 5.0, "all_rating": 4.2, "all_count": 324.0, "zip": "11420", "flushing": false}, "geometry": {"type": "Point", "coordinates": [-73.80403430000001, 40.6744372]}}, {"type": "Feature", "properties": {"name": "Chen's Garden", "ch_rating": 4.8, "ch_count": 5.0, "all_rating": 4.0, "all_count": 102.0, "zip": "10312", "flushing": false}, "geometry": {"type": "Point", "coordinates": [-74.1917139, 40.5633031]}}, {"type": "Feature", "properties": {"name": "Double", "ch_rating": 4.8, "ch_count": 5.0, "all_rating": 4.4, "all_count": 252.0, "zip": "11368", "flushing": true}, "geometry": {"type": "Point", "coordinates": [-73.854548, 40.7421669]}}, {"type": "Feature", "properties": {"name": "Happy World", "ch_rating": 4.8, "ch_count": 5.0, "all_rating": 3.9, "all_count": 162.0, "zip": "10033", "flushing": false}, "geometry": {"type": "Point", "coordinates": [-73.9365402, 40.8459127]}}, {"type": "Feature", "properties": {"name": "Jumbo Chinese Kitchen", "ch_rating": 4.8, "ch_count": 5.0, "all_rating": 4.3, "all_count": 141.0, "zip": "11418", "flushing": false}, "geometry": {"type": "Point", "coordinates": [-73.8353874, 40.6977923]}}, {"type": "Feature", "properties": {"name": "Great Wall", "ch_rating": 4.8, "ch_count": 10.0, "all_rating": 3.9, "all_count": 114.0, "zip": "11358", "flushing": true}, "geometry": {"type": "Point", "coordinates": [-73.7894882, 40.7697897]}}, {"type": "Feature", "properties": {"name": "Double Delight", "ch_rating": 4.8, "ch_count": 10.0, "all_rating": 3.9, "all_count": 127.0, "zip": "11214", "flushing": false}, "geometry": {"type": "Point", "coordinates": [-74.00045209999999, 40.6131606]}}, {"type": "Feature", "properties": {"name": "La Caridad 72", "ch_rating": 4.8, "ch_count": 20.0, "all_rating": 4.7, "all_count": 436.0, "zip": "10023", "flushing": false}, "geometry": {"type": "Point", "coordinates": [-73.9800415, 40.7777321]}}, {"type": "Feature", "properties": {"name": "Yeh\u2019s Bao", "ch_rating": 4.8, "ch_count": 55.0, "all_rating": 4.6, "all_count": 210.0, "zip": "10006", "flushing": false}, "geometry": {"type": "Point", "coordinates": [-74.0146609, 40.70840640000001]}}, {"type": "Feature", "properties": {"name": "Blue Peak Villa \u5c71\u6c34\u5e84", "ch_rating": 4.8, "ch_count": 55.0, "all_rating": 4.6, "all_count": 129.0, "zip": "10002", "flushing": false}, "geometry": {"type": "Point", "coordinates": [-73.98852389999999, 40.7226136]}}, {"type": "Feature", "properties": {"name": "YGF Malatang", "ch_rating": 4.79945799457994, "ch_count": 369.0, "all_rating": 4.8, "all_count": 957.0, "zip": "10003", "flushing": false}, "geometry": {"type": "Point", "coordinates": [-73.988252, 40.7322865]}}, {"type": "Feature", "properties": {"name": "King\u2019s Kitchen", "ch_rating": 4.79772079772079, "ch_count": 702.0, "all_rating": 4.8, "all_count": 1252.0, "zip": "11220", "flushing": false}, "geometry": {"type": "Point", "coordinates": [-74.01176579999999, 40.637072]}}, {"type": "Feature", "properties": {"name": "Xi'an Famous Foods \u897f\u5b89\u540d\u5403 | Woodside", "ch_rating": 4.79166666666666, "ch_count": 24.0, "all_rating": 4.6, "all_count": 185.0, "zip": "11377", "flushing": false}, "geometry": {"type": "Point", "coordinates": [-73.9065959, 40.7509377]}}, {"type": "Feature", "properties": {"name": "Nan Xiang Express - Williamsburg, NY", "ch_rating": 4.78231292517006, "ch_count": 147.0, "all_rating": 4.8, "all_count": 833.0, "zip": "11249", "flushing": false}, "geometry": {"type": "Point", "coordinates": [-73.9613578, 40.714757]}}, {"type": "Feature", "properties": {"name": "DONGBEI \u4e1c\u5317(Upper West Side)", "ch_rating": 4.78048780487804, "ch_count": 82.0, "all_rating": 4.8, "all_count": 132.0, "zip": "10025", "flushing": false}, "geometry": {"type": "Point", "coordinates": [-73.9622409, 40.7996535]}}, {"type": "Feature", "properties": {"name": "Hwa ShooShoo Xinjiang Fried Rice Noodles", "ch_rating": 4.77966101694915, "ch_count": 59.0, "all_rating": 4.7, "all_count": 102.0, "zip": "11354", "flushing": true}, "geometry": {"type": "Point", "coordinates": [-73.8346885, 40.760238]}}, {"type": "Feature", "properties": {"name": "China Wok", "ch_rating": 4.77777777777777, "ch_count": 9.0, "all_rating": 3.9, "all_count": 125.0, "zip": "11232", "flushing": false}, "geometry": {"type": "Point", "coordinates": [-74.00403299999999, 40.651464]}}, {"type": "Feature", "properties": {"name": "Chef Hong Kitchen", "ch_rating": 4.77777777777777, "ch_count": 9.0, "all_rating": 4.1, "all_count": 249.0, "zip": "10301", "flushing": false}, "geometry": {"type": "Point", "coordinates": [-74.0776009, 40.638093]}}, {"type": "Feature", "properties": {"name": "No. 1", "ch_rating": 4.77777777777777, "ch_count": 9.0, "all_rating": 3.5, "all_count": 215.0, "zip": "10302", "flushing": false}, "geometry": {"type": "Point", "coordinates": [-74.1344566, 40.63605460000001]}}, {"type": "Feature", "properties": {"name": "Cho-Sen Garden", "ch_rating": 4.77777777777777, "ch_count": 9.0, "all_rating": 4.2, "all_count": 441.0, "zip": "11375", "flushing": false}, "geometry": {"type": "Point", "coordinates": [-73.8488138, 40.7318931]}}, {"type": "Feature", "properties": {"name": "TIPSY SHANGHAI \u8607\u676d\u9910\u5385", "ch_rating": 4.77551020408163, "ch_count": 196.0, "all_rating": 4.8, "all_count": 917.0, "zip": "10003", "flushing": false}, "geometry": {"type": "Point", "coordinates": [-73.9882713, 40.7274166]}}, {"type": "Feature", "properties": {"name": "B2J Tasty Pot Bayside \u4e0d\u4e8c\u5bb6\u9178\u83dc\u9c7c \u5170\u5dde\u62c9\u9762Bayside", "ch_rating": 4.77474402730375, "ch_count": 293.0, "all_rating": 4.8, "all_count": 551.0, "zip": "11361", "flushing": true}, "geometry": {"type": "Point", "coordinates": [-73.7705679, 40.7621828]}}, {"type": "Feature", "properties": {"name": "Fan Szechuan Restaurant & Bar", "ch_rating": 4.77058823529411, "ch_count": 170.0, "all_rating": 4.8, "all_count": 1105.0, "zip": "10002", "flushing": false}, "geometry": {"type": "Point", "coordinates": [-73.9882018, 40.7191108]}}, {"type": "Feature", "properties": {"name": "Yum Cha Chinese Kitchen & Bar \u59d1\u82cf\u91cc", "ch_rating": 4.76898734177215, "ch_count": 316.0, "all_rating": 4.7, "all_count": 934.0, "zip": "10012", "flushing": false}, "geometry": {"type": "Point", "coordinates": [-73.9987795, 40.729259]}}, {"type": "Feature", "properties": {"name": "Hot Peppers LIC", "ch_rating": 4.76666666666666, "ch_count": 30.0, "all_rating": 4.6, "all_count": 251.0, "zip": "11101", "flushing": false}, "geometry": {"type": "Point", "coordinates": [-73.9401752, 40.7481037]}}, {"type": "Feature", "properties": {"name": "Chef Huang", "ch_rating": 4.76551724137931, "ch_count": 145.0, "all_rating": 4.7, "all_count": 347.0, "zip": "10016", "flushing": false}, "geometry": {"type": "Point", "coordinates": [-73.9757772, 40.7452948]}}, {"type": "Feature", "properties": {"name": "Jiang Nan NYC", "ch_rating": 4.76428571428571, "ch_count": 560.0, "all_rating": 4.8, "all_count": 1638.0, "zip": "10002", "flushing": false}, "geometry": {"type": "Point", "coordinates": [-73.9949693, 40.7175581]}}, {"type": "Feature", "properties": {"name": "MEILI \u6c89\u9999", "ch_rating": 4.76388888888888, "ch_count": 72.0, "all_rating": 4.7, "all_count": 281.0, "zip": "11249", "flushing": false}, "geometry": {"type": "Point", "coordinates": [-73.9555685, 40.7208999]}}, {"type": "Feature", "properties": {"name": "Yumpling", "ch_rating": 4.76326530612244, "ch_count": 245.0, "all_rating": 4.7, "all_count": 1044.0, "zip": "11101", "flushing": false}, "geometry": {"type": "Point", "coordinates": [-73.95382289999999, 40.7430199]}}, {"type": "Feature", "properties": {"name": "\u6c5f\u6e56 \u70e4 \u6dae \u9152\u574a", "ch_rating": 4.75886524822695, "ch_count": 141.0, "all_rating": 4.7, "all_count": 220.0, "zip": "11354", "flushing": true}, "geometry": {"type": "Point", "coordinates": [-73.8316488, 40.76129299999999]}}, {"type": "Feature", "properties": {"name": "Din's Kitchen", "ch_rating": 4.75396825396825, "ch_count": 126.0, "all_rating": 4.7, "all_count": 283.0, "zip": "11220", "flushing": false}, "geometry": {"type": "Point", "coordinates": [-74.00746199999999, 40.6411692]}}, {"type": "Feature", "properties": {"name": "No 1", "ch_rating": 4.75, "ch_count": 4.0, "all_rating": 4.0, "all_count": 133.0, "zip": "11214", "flushing": false}, "geometry": {"type": "Point", "coordinates": [-73.99575829999999, 40.6037939]}}, {"type": "Feature", "properties": {"name": "China Delight", "ch_rating": 4.75, "ch_count": 4.0, "all_rating": 3.8, "all_count": 132.0, "zip": "11232", "flushing": false}, "geometry": {"type": "Point", "coordinates": [-74.0046059, 40.6504321]}}, {"type": "Feature", "properties": {"name": "No 1", "ch_rating": 4.75, "ch_count": 4.0, "all_rating": 3.7, "all_count": 138.0, "zip": "10469", "flushing": false}, "geometry": {"type": "Point", "coordinates": [-73.8425074, 40.8697489]}}, {"type": "Feature", "properties": {"name": "Hillside Kitchen", "ch_rating": 4.75, "ch_count": 4.0, "all_rating": 4.4, "all_count": 351.0, "zip": "07205", "flushing": false}, "geometry": {"type": "Point", "coordinates": [-74.2160367, 40.6951775]}}, {"type": "Feature", "properties": {"name": "Ming Feng Chinese Restaurant", "ch_rating": 4.75, "ch_count": 4.0, "all_rating": 4.1, "all_count": 199.0, "zip": "07065", "flushing": false}, "geometry": {"type": "Point", "coordinates": [-74.2885931, 40.60718689999999]}}, {"type": "Feature", "properties": {"name": "Ming Wok", "ch_rating": 4.75, "ch_count": 4.0, "all_rating": 3.7, "all_count": 119.0, "zip": "11372", "flushing": false}, "geometry": {"type": "Point", "coordinates": [-73.8827596, 40.7556332]}}, {"type": "Feature", "properties": {"name": "New Star", "ch_rating": 4.75, "ch_count": 4.0, "all_rating": 3.7, "all_count": 118.0, "zip": "11368", "flushing": true}, "geometry": {"type": "Point", "coordinates": [-73.8638328, 40.7373614]}}, {"type": "Feature", "properties": {"name": "Vegetarian palate", "ch_rating": 4.75, "ch_count": 8.0, "all_rating": 4.5, "all_count": 186.0, "zip": "11238", "flushing": false}, "geometry": {"type": "Point", "coordinates": [-73.9638447, 40.679612]}}, {"type": "Feature", "properties": {"name": "Koong Wing", "ch_rating": 4.75, "ch_count": 8.0, "all_rating": 4.2, "all_count": 102.0, "zip": "11220", "flushing": false}, "geometry": {"type": "Point", "coordinates": [-74.0184885, 40.640426]}}, {"type": "Feature", "properties": {"name": "Jing Fu House", "ch_rating": 4.75, "ch_count": 8.0, "all_rating": 4.2, "all_count": 231.0, "zip": "11372", "flushing": false}, "geometry": {"type": "Point", "coordinates": [-73.8700853, 40.7492057]}}, {"type": "Feature", "properties": {"name": "Mr. Wonton", "ch_rating": 4.75, "ch_count": 8.0, "all_rating": 4.3, "all_count": 187.0, "zip": "11421", "flushing": false}, "geometry": {"type": "Point", "coordinates": [-73.86391069999999, 40.6919658]}}, {"type": "Feature", "properties": {"name": "New Panda", "ch_rating": 4.75, "ch_count": 12.0, "all_rating": 4.3, "all_count": 124.0, "zip": "11375", "flushing": false}, "geometry": {"type": "Point", "coordinates": [-73.8568154, 40.7174455]}}, {"type": "Feature", "properties": {"name": "Tack's Chinese Take Out", "ch_rating": 4.75, "ch_count": 12.0, "all_rating": 3.8, "all_count": 132.0, "zip": "10314", "flushing": false}, "geometry": {"type": "Point", "coordinates": [-74.1211853, 40.6046525]}}, {"type": "Feature", "properties": {"name": "Sweet Bamboo Chinese Food | Elmhurst", "ch_rating": 4.75, "ch_count": 12.0, "all_rating": 4.6, "all_count": 141.0, "zip": "11373", "flushing": false}, "geometry": {"type": "Point", "coordinates": [-73.8746336, 40.7401977]}}, {"type": "Feature", "properties": {"name": "Old Luo Yang", "ch_rating": 4.74203821656051, "ch_count": 314.0, "all_rating": 4.7, "all_count": 550.0, "zip": "11354", "flushing": true}, "geometry": {"type": "Point", "coordinates": [-73.8309378, 40.7600179]}}, {"type": "Feature", "properties": {"name": "Jiang Nan Flushing", "ch_rating": 4.74136321195144, "ch_count": 1071.0, "all_rating": 4.7, "all_count": 2193.0, "zip": "11354", "flushing": true}, "geometry": {"type": "Point", "coordinates": [-73.8327755, 40.7594242]}}, {"type": "Feature", "properties": {"name": "Chiko", "ch_rating": 4.74074074074074, "ch_count": 27.0, "all_rating": 4.8, "all_count": 265.0, "zip": "11222", "flushing": false}, "geometry": {"type": "Point", "coordinates": [-73.95428849999999, 40.731897]}}, {"type": "Feature", "properties": {"name": "JiBeiChuan Rice Noodle & Ramen \u5b63\u5317\u5ddd\u82b1\u80f6\u9e21\u6c64\u7c73\u7c89 Bayside \u5457\u8d5b", "ch_rating": 4.73571428571428, "ch_count": 140.0, "all_rating": 4.7, "all_count": 326.0, "zip": "11361", "flushing": true}, "geometry": {"type": "Point", "coordinates": [-73.7703727, 40.7619767]}}, {"type": "Feature", "properties": {"name": "Chi Restaurant & Bar", "ch_rating": 4.73391304347826, "ch_count": 575.0, "all_rating": 4.7, "all_count": 2524.0, "zip": "10018", "flushing": false}, "geometry": {"type": "Point", "coordinates": [-73.9944725, 40.7554594]}}, {"type": "Feature", "properties": {"name": "Peng's Noodle Folk", "ch_rating": 4.73333333333333, "ch_count": 60.0, "all_rating": 4.7, "all_count": 718.0, "zip": "10021", "flushing": false}, "geometry": {"type": "Point", "coordinates": [-73.96209979999999, 40.77098730000001]}}, {"type": "Feature", "properties": {"name": "Vegan Ginger Root", "ch_rating": 4.72727272727272, "ch_count": 11.0, "all_rating": 4.7, "all_count": 402.0, "zip": "10065", "flushing": false}, "geometry": {"type": "Point", "coordinates": [-73.9595604, 40.7624834]}}, {"type": "Feature", "properties": {"name": "Mr. Wonton", "ch_rating": 4.72727272727272, "ch_count": 11.0, "all_rating": 4.1, "all_count": 349.0, "zip": "11217", "flushing": false}, "geometry": {"type": "Point", "coordinates": [-73.9748113, 40.6751414]}}, {"type": "Feature", "properties": {"name": "Peking Taste Chinese and Thai Restaurant", "ch_rating": 4.72727272727272, "ch_count": 22.0, "all_rating": 4.0, "all_count": 165.0, "zip": "10314", "flushing": false}, "geometry": {"type": "Point", "coordinates": [-74.1647066, 40.5908246]}}, {"type": "Feature", "properties": {"name": "Noodlecraft", "ch_rating": 4.72727272727272, "ch_count": 55.0, "all_rating": 4.6, "all_count": 376.0, "zip": "11101", "flushing": false}, "geometry": {"type": "Point", "coordinates": [-73.9518949, 40.7446413]}}, {"type": "Feature", "properties": {"name": "Nan Xiang Express - Upper West Side, NY", "ch_rating": 4.72222222222222, "ch_count": 36.0, "all_rating": 4.6, "all_count": 165.0, "zip": "10025", "flushing": false}, "geometry": {"type": "Point", "coordinates": [-73.9681978, 40.802587]}}, {"type": "Feature", "properties": {"name": "King's Kitchen", "ch_rating": 4.72167832167832, "ch_count": 715.0, "all_rating": 4.6, "all_count": 1448.0, "zip": "11214", "flushing": false}, "geometry": {"type": "Point", "coordinates": [-73.9968749, 40.6039672]}}, {"type": "Feature", "properties": {"name": "SIU KITCHEN (Hotpot)", "ch_rating": 4.71641791044776, "ch_count": 67.0, "all_rating": 4.5, "all_count": 156.0, "zip": "10306", "flushing": false}, "geometry": {"type": "Point", "coordinates": [-74.1113314, 40.5715399]}}, {"type": "Feature", "properties": {"name": "Annie's First Wok", "ch_rating": 4.71428571428571, "ch_count": 7.0, "all_rating": 4.3, "all_count": 133.0, "zip": "11201", "flushing": false}, "geometry": {"type": "Point", "coordinates": [-73.9845356, 40.7015751]}}, {"type": "Feature", "properties": {"name": "New Lin's Kitchen", "ch_rating": 4.71428571428571, "ch_count": 7.0, "all_rating": 4.3, "all_count": 152.0, "zip": "11372", "flushing": false}, "geometry": {"type": "Point", "coordinates": [-73.89490289999999, 40.7505481]}}, {"type": "Feature", "properties": {"name": "China Palace Restaurant", "ch_rating": 4.71428571428571, "ch_count": 7.0, "all_rating": 3.9, "all_count": 185.0, "zip": "10461", "flushing": false}, "geometry": {"type": "Point", "coordinates": [-73.8296077, 40.84390210000001]}}, {"type": "Feature", "properties": {"name": "CHELI FLUSHING", "ch_rating": 4.7112462006079, "ch_count": 658.0, "all_rating": 4.7, "all_count": 1508.0, "zip": "11354", "flushing": true}, "geometry": {"type": "Point", "coordinates": [-73.8326623, 40.7594853]}}, {"type": "Feature", "properties": {"name": "Nan Xiang Xiao Long Bao", "ch_rating": 4.71032357473035, "ch_count": 649.0, "all_rating": 4.7, "all_count": 2494.0, "zip": "10001", "flushing": false}, "geometry": {"type": "Point", "coordinates": [-73.9864798, 40.7482492]}}, {"type": "Feature", "properties": {"name": "Dim Sum Bloom Manhattan 98st", "ch_rating": 4.70967741935483, "ch_count": 31.0, "all_rating": 4.4, "all_count": 213.0, "zip": "10025", "flushing": false}, "geometry": {"type": "Point", "coordinates": [-73.97059000000002, 40.7957582]}}, {"type": "Feature", "properties": {"name": "Forever Taste", "ch_rating": 4.70967741935483, "ch_count": 31.0, "all_rating": 4.4, "all_count": 190.0, "zip": "10002", "flushing": false}, "geometry": {"type": "Point", "coordinates": [-73.9899373, 40.7130614]}}, {"type": "Feature", "properties": {"name": "Jin Mei Dumpling", "ch_rating": 4.70967741935483, "ch_count": 93.0, "all_rating": 4.7, "all_count": 951.0, "zip": "10002", "flushing": false}, "geometry": {"type": "Point", "coordinates": [-73.9965684, 40.7129395]}}, {"type": "Feature", "properties": {"name": "The Pancake - \u6768\u8bb0\u9c9c\u8089\u997c", "ch_rating": 4.70833333333333, "ch_count": 24.0, "all_rating": 4.8, "all_count": 127.0, "zip": "11354", "flushing": true}, "geometry": {"type": "Point", "coordinates": [-73.82817159999999, 40.7602851]}}, {"type": "Feature", "properties": {"name": "Grand Sichuan", "ch_rating": 4.70833333333333, "ch_count": 48.0, "all_rating": 4.4, "all_count": 428.0, "zip": "11374", "flushing": false}, "geometry": {"type": "Point", "coordinates": [-73.854812, 40.7270619]}}, {"type": "Feature", "properties": {"name": "Chef Tan", "ch_rating": 4.70625, "ch_count": 160.0, "all_rating": 4.6, "all_count": 440.0, "zip": "10003", "flushing": false}, "geometry": {"type": "Point", "coordinates": [-73.9880313, 40.7288763]}}, {"type": "Feature", "properties": {"name": "Hunan Tapas", "ch_rating": 4.70526315789473, "ch_count": 95.0, "all_rating": 4.5, "all_count": 190.0, "zip": "11101", "flushing": false}, "geometry": {"type": "Point", "coordinates": [-73.93912569999999, 40.7519903]}}, {"type": "Feature", "properties": {"name": "Dim Sum Sam", "ch_rating": 4.70397643593519, "ch_count": 679.0, "all_rating": 4.5, "all_count": 2558.0, "zip": "10018", "flushing": false}, "geometry": {"type": "Point", "coordinates": [-73.98958209999999, 40.7552667]}}, {"type": "Feature", "properties": {"name": "Zhongzhong Noodles - Bronx", "ch_rating": 4.7037037037037, "ch_count": 27.0, "all_rating": 4.4, "all_count": 268.0, "zip": "10458", "flushing": false}, "geometry": {"type": "Point", "coordinates": [-73.8841991, 40.8566148]}}, {"type": "Feature", "properties": {"name": "Lucky", "ch_rating": 4.7, "ch_count": 10.0, "all_rating": 4.1, "all_count": 148.0, "zip": "11377", "flushing": false}, "geometry": {"type": "Point", "coordinates": [-73.8961703, 40.7366739]}}, {"type": "Feature", "properties": {"name": "Xi'an Famous Foods \u897f\u5b89\u540d\u5403 | Williamsburg", "ch_rating": 4.7, "ch_count": 20.0, "all_rating": 4.7, "all_count": 181.0, "zip": "11211", "flushing": false}, "geometry": {"type": "Point", "coordinates": [-73.9551546, 40.7174201]}}, {"type": "Feature", "properties": {"name": "Liuyishou Hot Pot", "ch_rating": 4.7, "ch_count": 710.0, "all_rating": 4.6, "all_count": 1482.0, "zip": "11354", "flushing": true}, "geometry": {"type": "Point", "coordinates": [-73.8276729, 40.7607682]}}, {"type": "Feature", "properties": {"name": "Lao Chengdu Spicy Food", "ch_rating": 4.6996699669967, "ch_count": 303.0, "all_rating": 4.6, "all_count": 529.0, "zip": "11354", "flushing": true}, "geometry": {"type": "Point", "coordinates": [-73.83251849999999, 40.7603491]}}, {"type": "Feature", "properties": {"name": "Steam", "ch_rating": 4.69811320754717, "ch_count": 53.0, "all_rating": 4.6, "all_count": 486.0, "zip": "10011", "flushing": false}, "geometry": {"type": "Point", "coordinates": [-73.9977961, 40.7355572]}}, {"type": "Feature", "properties": {"name": "Ooodles Noodle House \u5bf6\u5cf6\u7f8e\u98df Taiwanese Eats", "ch_rating": 4.69642857142857, "ch_count": 56.0, "all_rating": 4.6, "all_count": 188.0, "zip": "11361", "flushing": true}, "geometry": {"type": "Point", "coordinates": [-73.7673902, 40.76082419999999]}}, {"type": "Feature", "properties": {"name": "Jiang Nan LIC", "ch_rating": 4.69354838709677, "ch_count": 186.0, "all_rating": 4.5, "all_count": 437.0, "zip": "11101", "flushing": false}, "geometry": {"type": "Point", "coordinates": [-73.94231169999999, 40.74647849999999]}}, {"type": "Feature", "properties": {"name": "C & Y", "ch_rating": 4.69230769230769, "ch_count": 13.0, "all_rating": 4.3, "all_count": 210.0, "zip": "11215", "flushing": false}, "geometry": {"type": "Point", "coordinates": [-73.9849675, 40.6704306]}}, {"type": "Feature", "properties": {"name": "Szechuan Kitchen", "ch_rating": 4.69230769230769, "ch_count": 13.0, "all_rating": 3.3, "all_count": 139.0, "zip": "11427", "flushing": false}, "geometry": {"type": "Point", "coordinates": [-73.7364856, 40.7333358]}}, {"type": "Feature", "properties": {"name": "\u8349\u5802 Caotang New Sichuan Cuisine", "ch_rating": 4.69230769230769, "ch_count": 26.0, "all_rating": 4.4, "all_count": 193.0, "zip": "10075", "flushing": false}, "geometry": {"type": "Point", "coordinates": [-73.9558204, 40.773394]}}, {"type": "Feature", "properties": {"name": "Hunan Noodle", "ch_rating": 4.69080779944289, "ch_count": 359.0, "all_rating": 4.7, "all_count": 632.0, "zip": "11354", "flushing": true}, "geometry": {"type": "Point", "coordinates": [-73.8332365, 40.7608752]}}, {"type": "Feature", "properties": {"name": "Bell Garden", "ch_rating": 4.6875, "ch_count": 48.0, "all_rating": 4.4, "all_count": 283.0, "zip": "11361", "flushing": true}, "geometry": {"type": "Point", "coordinates": [-73.7712071, 40.7647156]}}, {"type": "Feature", "properties": {"name": "Xin La Gong Fu", "ch_rating": 4.68421052631578, "ch_count": 76.0, "all_rating": 4.5, "all_count": 210.0, "zip": "11354", "flushing": true}, "geometry": {"type": "Point", "coordinates": [-73.8282132, 40.7642186]}}, {"type": "Feature", "properties": {"name": "YongChuan", "ch_rating": 4.67777777777777, "ch_count": 180.0, "all_rating": 4.7, "all_count": 383.0, "zip": "10002", "flushing": false}, "geometry": {"type": "Point", "coordinates": [-73.98522969999999, 40.7182555]}}, {"type": "Feature", "properties": {"name": "King\u2019s Kitchen", "ch_rating": 4.67553191489361, "ch_count": 188.0, "all_rating": 4.6, "all_count": 388.0, "zip": "10013", "flushing": false}, "geometry": {"type": "Point", "coordinates": [-73.9981757, 40.7158642]}}, {"type": "Feature", "properties": {"name": "Carol's Bun", "ch_rating": 4.67307692307692, "ch_count": 52.0, "all_rating": 4.7, "all_count": 226.0, "zip": "10002", "flushing": false}, "geometry": {"type": "Point", "coordinates": [-73.9914345, 40.7137997]}}, {"type": "Feature", "properties": {"name": "TAI ER SICHUAN CUISINE \u592a\u4e8c\u9178\u83dc\u9c7c (FLUSHING)", "ch_rating": 4.66914498141263, "ch_count": 538.0, "all_rating": 4.6, "all_count": 1063.0, "zip": "11354", "flushing": true}, "geometry": {"type": "Point", "coordinates": [-73.83346740000002, 40.7602271]}}, {"type": "Feature", "properties": {"name": "Jun Lung", "ch_rating": 4.66666666666666, "ch_count": 3.0, "all_rating": 4.4, "all_count": 190.0, "zip": "07047", "flushing": false}, "geometry": {"type": "Point", "coordinates": [-74.0211254, 40.7927554]}}, {"type": "Feature", "properties": {"name": "Empire Kitchen", "ch_rating": 4.66666666666666, "ch_count": 3.0, "all_rating": 4.3, "all_count": 210.0, "zip": "11233", "flushing": false}, "geometry": {"type": "Point", "coordinates": [-73.92508029999999, 40.6721641]}}, {"type": "Feature", "properties": {"name": "Weng's Garden", "ch_rating": 4.66666666666666, "ch_count": 3.0, "all_rating": 3.9, "all_count": 156.0, "zip": "11233", "flushing": false}, "geometry": {"type": "Point", "coordinates": [-73.92068320000001, 40.6856944]}}, {"type": "Feature", "properties": {"name": "Lucky Chen", "ch_rating": 4.66666666666666, "ch_count": 3.0, "all_rating": 3.8, "all_count": 114.0, "zip": "11221", "flushing": false}, "geometry": {"type": "Point", "coordinates": [-73.92510829999999, 40.6909841]}}, {"type": "Feature", "properties": {"name": "Mr King Food Kitchen", "ch_rating": 4.66666666666666, "ch_count": 3.0, "all_rating": 3.9, "all_count": 173.0, "zip": "11203", "flushing": false}, "geometry": {"type": "Point", "coordinates": [-73.9396275, 40.660457]}}, {"type": "Feature", "properties": {"name": "Wing Yum Lin's", "ch_rating": 4.66666666666666, "ch_count": 3.0, "all_rating": 4.2, "all_count": 134.0, "zip": "11418", "flushing": false}, "geometry": {"type": "Point", "coordinates": [-73.8375157, 40.69685459999999]}}, {"type": "Feature", "properties": {"name": "Chinese Gourmet Restaurant", "ch_rating": 4.66666666666666, "ch_count": 3.0, "all_rating": 4.0, "all_count": 212.0, "zip": "07036", "flushing": false}, "geometry": {"type": "Point", "coordinates": [-74.25313919999999, 40.6311946]}}, {"type": "Feature", "properties": {"name": "China Cafe", "ch_rating": 4.66666666666666, "ch_count": 3.0, "all_rating": 4.3, "all_count": 433.0, "zip": "08830", "flushing": false}, "geometry": {"type": "Point", "coordinates": [-74.3096746, 40.5604734]}}, {"type": "Feature", "properties": {"name": "Golden Star", "ch_rating": 4.66666666666666, "ch_count": 3.0, "all_rating": 4.2, "all_count": 373.0, "zip": "10033", "flushing": false}, "geometry": {"type": "Point", "coordinates": [-73.9363765, 40.8498569]}}, {"type": "Feature", "properties": {"name": "Wing Wah", "ch_rating": 4.66666666666666, "ch_count": 6.0, "all_rating": 4.1, "all_count": 121.0, "zip": "11375", "flushing": false}, "geometry": {"type": "Point", "coordinates": [-73.8542427, 40.7108912]}}, {"type": "Feature", "properties": {"name": "East Garden", "ch_rating": 4.66666666666666, "ch_count": 6.0, "all_rating": 4.2, "all_count": 125.0, "zip": "11234", "flushing": false}, "geometry": {"type": "Point", "coordinates": [-73.93339759999999, 40.6191967]}}, {"type": "Feature", "properties": {"name": "Liu's Garden", "ch_rating": 4.66666666666666, "ch_count": 6.0, "all_rating": 4.0, "all_count": 118.0, "zip": "11040", "flushing": false}, "geometry": {"type": "Point", "coordinates": [-73.70764, 40.7496114]}}, {"type": "Feature", "properties": {"name": "Quality Chef", "ch_rating": 4.66666666666666, "ch_count": 6.0, "all_rating": 4.1, "all_count": 262.0, "zip": "10461", "flushing": false}, "geometry": {"type": "Point", "coordinates": [-73.8491428, 40.8468319]}}, {"type": "Feature", "properties": {"name": "China New Star", "ch_rating": 4.66666666666666, "ch_count": 9.0, "all_rating": 4.0, "all_count": 320.0, "zip": "10302", "flushing": false}, "geometry": {"type": "Point", "coordinates": [-74.1432401, 40.6246431]}}, {"type": "Feature", "properties": {"name": "China Pagoda", "ch_rating": 4.66666666666666, "ch_count": 9.0, "all_rating": 3.7, "all_count": 252.0, "zip": "11209", "flushing": false}, "geometry": {"type": "Point", "coordinates": [-74.021362, 40.633144]}}, {"type": "Feature", "properties": {"name": "New Luen Hing", "ch_rating": 4.66666666666666, "ch_count": 9.0, "all_rating": 3.5, "all_count": 137.0, "zip": "10463", "flushing": false}, "geometry": {"type": "Point", "coordinates": [-73.9036129, 40.8762323]}}, {"type": "Feature", "properties": {"name": "New Cottage", "ch_rating": 4.66666666666666, "ch_count": 12.0, "all_rating": 4.3, "all_count": 239.0, "zip": "10024", "flushing": false}, "geometry": {"type": "Point", "coordinates": [-73.98079919999999, 40.78317759999999]}}, {"type": "Feature", "properties": {"name": "Big Chef", "ch_rating": 4.66666666666666, "ch_count": 12.0, "all_rating": 4.1, "all_count": 112.0, "zip": "11229", "flushing": false}, "geometry": {"type": "Point", "coordinates": [-73.9420074, 40.6049549]}}, {"type": "Feature", "properties": {"name": "Hibachi Express", "ch_rating": 4.66666666666666, "ch_count": 12.0, "all_rating": 4.4, "all_count": 120.0, "zip": "10009", "flushing": false}, "geometry": {"type": "Point", "coordinates": [-73.9787559, 40.7295]}}, {"type": "Feature", "properties": {"name": "China Wok Staten Island", "ch_rating": 4.66666666666666, "ch_count": 12.0, "all_rating": 3.9, "all_count": 114.0, "zip": "10306", "flushing": false}, "geometry": {"type": "Point", "coordinates": [-74.1198095, 40.5754611]}}, {"type": "Feature", "properties": {"name": "Xi'an Famous Foods \u897f\u5b89\u540d\u5403 | Union Square", "ch_rating": 4.66666666666666, "ch_count": 30.0, "all_rating": 4.7, "all_count": 194.0, "zip": "10003", "flushing": false}, "geometry": {"type": "Point", "coordinates": [-73.9896693, 40.7337268]}}, {"type": "Feature", "properties": {"name": "Sun Hing Lung", "ch_rating": 4.66666666666666, "ch_count": 57.0, "all_rating": 4.6, "all_count": 336.0, "zip": "10002", "flushing": false}, "geometry": {"type": "Point", "coordinates": [-73.995075, 40.712743]}}, {"type": "Feature", "properties": {"name": "Dim Sum Palace", "ch_rating": 4.66129032258064, "ch_count": 124.0, "all_rating": 4.6, "all_count": 943.0, "zip": "10003", "flushing": false}, "geometry": {"type": "Point", "coordinates": [-73.989884, 40.7258783]}}, {"type": "Feature", "properties": {"name": "\u5c0f\u9838 \u7687\u723a\u96de Royal Rooster hotpot", "ch_rating": 4.65853658536585, "ch_count": 41.0, "all_rating": 4.4, "all_count": 113.0, "zip": "11362", "flushing": true}, "geometry": {"type": "Point", "coordinates": [-73.7354817, 40.7710525]}}, {"type": "Feature", "properties": {"name": "Coco Hotpot \u7687\u6930\u9e21", "ch_rating": 4.65777777777777, "ch_count": 225.0, "all_rating": 4.6, "all_count": 436.0, "zip": "11354", "flushing": true}, "geometry": {"type": "Point", "coordinates": [-73.8330397, 40.7602126]}}, {"type": "Feature", "properties": {"name": "Gao's BBQ & Crab", "ch_rating": 4.65775950668037, "ch_count": 973.0, "all_rating": 4.5, "all_count": 1790.0, "zip": "11354", "flushing": true}, "geometry": {"type": "Point", "coordinates": [-73.82746329999999, 40.7600038]}}, {"type": "Feature", "properties": {"name": "Zhu Ji Dumpling House", "ch_rating": 4.65714285714285, "ch_count": 35.0, "all_rating": 4.5, "all_count": 150.0, "zip": "11354", "flushing": true}, "geometry": {"type": "Point", "coordinates": [-73.8299576, 40.758097]}}, {"type": "Feature", "properties": {"name": "MARATHON CAFE", "ch_rating": 4.65384615384615, "ch_count": 78.0, "all_rating": 4.6, "all_count": 217.0, "zip": "11362", "flushing": true}, "geometry": {"type": "Point", "coordinates": [-73.73636230000001, 40.7669944]}}, {"type": "Feature", "properties": {"name": "Da Long Yi Hot Pot", "ch_rating": 4.64777327935222, "ch_count": 247.0, "all_rating": 4.5, "all_count": 489.0, "zip": "11101", "flushing": false}, "geometry": {"type": "Point", "coordinates": [-73.9413782, 40.7502032]}}, {"type": "Feature", "properties": {"name": "Moon Kee Restaurant", "ch_rating": 4.64516129032258, "ch_count": 62.0, "all_rating": 4.4, "all_count": 289.0, "zip": "10025", "flushing": false}, "geometry": {"type": "Point", "coordinates": [-73.9694833, 40.7973721]}}, {"type": "Feature", "properties": {"name": "Yi Ji Shi Mo", "ch_rating": 4.64285714285714, "ch_count": 140.0, "all_rating": 4.7, "all_count": 560.0, "zip": "10013", "flushing": false}, "geometry": {"type": "Point", "coordinates": [-73.9957473, 40.7181923]}}, {"type": "Feature", "properties": {"name": "Fuhing Chinese Restaurant", "ch_rating": 4.63636363636363, "ch_count": 11.0, "all_rating": 3.9, "all_count": 202.0, "zip": "07202", "flushing": false}, "geometry": {"type": "Point", "coordinates": [-74.2248104, 40.6522104]}}, {"type": "Feature", "properties": {"name": "New Chinatown Restaurant and Bar | Asian Fusion | Chinese and Thai Food", "ch_rating": 4.63636363636363, "ch_count": 44.0, "all_rating": 4.4, "all_count": 540.0, "zip": "10128", "flushing": false}, "geometry": {"type": "Point", "coordinates": [-73.95125929999999, 40.7828576]}}, {"type": "Feature", "properties": {"name": "Spicy Moon East Village", "ch_rating": 4.63636363636363, "ch_count": 55.0, "all_rating": 4.6, "all_count": 950.0, "zip": "10003", "flushing": false}, "geometry": {"type": "Point", "coordinates": [-73.9872499, 40.7266901]}}, {"type": "Feature", "properties": {"name": "Chow House", "ch_rating": 4.63636363636363, "ch_count": 209.0, "all_rating": 4.6, "all_count": 1059.0, "zip": "10012", "flushing": false}, "geometry": {"type": "Point", "coordinates": [-74.00076159999999, 40.7291204]}}, {"type": "Feature", "properties": {"name": "China Gourmet", "ch_rating": 4.63333333333333, "ch_count": 30.0, "all_rating": 3.6, "all_count": 614.0, "zip": "10019", "flushing": false}, "geometry": {"type": "Point", "coordinates": [-73.9852801, 40.7639193]}}, {"type": "Feature", "properties": {"name": "Hey Yuet \u559c\u7ca4", "ch_rating": 4.63333333333333, "ch_count": 120.0, "all_rating": 4.6, "all_count": 586.0, "zip": "10001", "flushing": false}, "geometry": {"type": "Point", "coordinates": [-73.996365, 40.747137]}}, {"type": "Feature", "properties": {"name": "The Best Sichuan \u4e00\u54c1\u6210\u90fd39", "ch_rating": 4.62845010615711, "ch_count": 471.0, "all_rating": 4.7, "all_count": 3249.0, "zip": "10018", "flushing": false}, "geometry": {"type": "Point", "coordinates": [-73.9845295, 40.7527574]}}, {"type": "Feature", "properties": {"name": "\u7076\u95e8\u7b7e Zao Men Qian Hot Pot", "ch_rating": 4.62686567164179, "ch_count": 268.0, "all_rating": 4.5, "all_count": 467.0, "zip": "11355", "flushing": true}, "geometry": {"type": "Point", "coordinates": [-73.8186762, 40.7505648]}}, {"type": "Feature", "properties": {"name": "King\u2019s Kitchen", "ch_rating": 4.62569832402234, "ch_count": 716.0, "all_rating": 4.5, "all_count": 1497.0, "zip": "10002", "flushing": false}, "geometry": {"type": "Point", "coordinates": [-73.99369229999999, 40.7139892]}}, {"type": "Feature", "properties": {"name": "Tasty House", "ch_rating": 4.625, "ch_count": 8.0, "all_rating": 4.0, "all_count": 135.0, "zip": "11223", "flushing": false}, "geometry": {"type": "Point", "coordinates": [-73.97469149999999, 40.5970124]}}, {"type": "Feature", "properties": {"name": "North Dumplings Essex", "ch_rating": 4.625, "ch_count": 72.0, "all_rating": 4.6, "all_count": 943.0, "zip": "10002", "flushing": false}, "geometry": {"type": "Point", "coordinates": [-73.9900579, 40.7154636]}}, {"type": "Feature", "properties": {"name": "Burp Bowl Cafe", "ch_rating": 4.62237762237762, "ch_count": 143.0, "all_rating": 4.5, "all_count": 479.0, "zip": "10016", "flushing": false}, "geometry": {"type": "Point", "coordinates": [-73.98262439999999, 40.7417818]}}, {"type": "Feature", "properties": {"name": "Wah Fung No.1 Fast Food", "ch_rating": 4.61351351351351, "ch_count": 370.0, "all_rating": 4.5, "all_count": 3411.0, "zip": "10002", "flushing": false}, "geometry": {"type": "Point", "coordinates": [-73.9944649, 40.7173189]}}, {"type": "Feature", "properties": {"name": "West Rice Roll King \u897f\u5173\u80a0\u7c89\u738b", "ch_rating": 4.60919540229885, "ch_count": 87.0, "all_rating": 4.6, "all_count": 376.0, "zip": "10002", "flushing": false}, "geometry": {"type": "Point", "coordinates": [-73.9947663, 40.7169914]}}, {"type": "Feature", "properties": {"name": "Empire East", "ch_rating": 4.60869565217391, "ch_count": 23.0, "all_rating": 3.7, "all_count": 355.0, "zip": "10306", "flushing": false}, "geometry": {"type": "Point", "coordinates": [-74.1138074, 40.5646531]}}, {"type": "Feature", "properties": {"name": "Hainan", "ch_rating": 4.60833333333333, "ch_count": 120.0, "all_rating": 4.5, "all_count": 767.0, "zip": "11358", "flushing": true}, "geometry": {"type": "Point", "coordinates": [-73.8037556, 40.7606451]}}, {"type": "Feature", "properties": {"name": "Pearl Garden", "ch_rating": 4.60330578512396, "ch_count": 121.0, "all_rating": 4.5, "all_count": 338.0, "zip": "11357", "flushing": true}, "geometry": {"type": "Point", "coordinates": [-73.8219694, 40.786775]}}, {"type": "Feature", "properties": {"name": "Kum Fung", "ch_rating": 4.6, "ch_count": 5.0, "all_rating": 3.9, "all_count": 178.0, "zip": "10304", "flushing": false}, "geometry": {"type": "Point", "coordinates": [-74.0722633, 40.6218795]}}, {"type": "Feature", "properties": {"name": "New Fun Sing", "ch_rating": 4.6, "ch_count": 10.0, "all_rating": 4.0, "all_count": 255.0, "zip": "11206", "flushing": false}, "geometry": {"type": "Point", "coordinates": [-73.9435689, 40.7018474]}}, {"type": "Feature", "properties": {"name": "Taste of China", "ch_rating": 4.6, "ch_count": 10.0, "all_rating": 4.3, "all_count": 259.0, "zip": "11220", "flushing": false}, "geometry": {"type": "Point", "coordinates": [-74.0232195, 40.6347926]}}, {"type": "Feature", "properties": {"name": "Dao Palate", "ch_rating": 4.6, "ch_count": 10.0, "all_rating": 4.3, "all_count": 247.0, "zip": "11217", "flushing": false}, "geometry": {"type": "Point", "coordinates": [-73.9727187, 40.6779724]}}, {"type": "Feature", "properties": {"name": "Crown Palace", "ch_rating": 4.6, "ch_count": 10.0, "all_rating": 3.6, "all_count": 115.0, "zip": "10302", "flushing": false}, "geometry": {"type": "Point", "coordinates": [-74.1315735, 40.6266873]}}, {"type": "Feature", "properties": {"name": "Ho Wok", "ch_rating": 4.6, "ch_count": 10.0, "all_rating": 4.0, "all_count": 127.0, "zip": "10308", "flushing": false}, "geometry": {"type": "Point", "coordinates": [-74.164391, 40.559483]}}, {"type": "Feature", "properties": {"name": "Best Garden", "ch_rating": 4.6, "ch_count": 10.0, "all_rating": 4.2, "all_count": 102.0, "zip": "11363", "flushing": true}, "geometry": {"type": "Point", "coordinates": [-73.7444879, 40.7656857]}}, {"type": "Feature", "properties": {"name": "Oh Dumplings", "ch_rating": 4.6, "ch_count": 20.0, "all_rating": 4.7, "all_count": 234.0, "zip": "11222", "flushing": false}, "geometry": {"type": "Point", "coordinates": [-73.9583243, 40.731853]}}, {"type": "Feature", "properties": {"name": "New Dragon", "ch_rating": 4.6, "ch_count": 25.0, "all_rating": 4.0, "all_count": 149.0, "zip": "11358", "flushing": true}, "geometry": {"type": "Point", "coordinates": [-73.8047437, 40.756043]}}, {"type": "Feature", "properties": {"name": "Xi'an Famous Foods \u897f\u5b89\u540d\u5403 | 74th&Amsterdam UWS", "ch_rating": 4.59756097560975, "ch_count": 82.0, "all_rating": 4.5, "all_count": 468.0, "zip": "10023", "flushing": false}, "geometry": {"type": "Point", "coordinates": [-73.9801846, 40.7801202]}}, {"type": "Feature", "properties": {"name": "\u6e58\u5f53\u6709\u6599Young and Rich NY", "ch_rating": 4.59660297239915, "ch_count": 471.0, "all_rating": 4.5, "all_count": 856.0, "zip": "11354", "flushing": true}, "geometry": {"type": "Point", "coordinates": [-73.83274349999999, 40.7618164]}}, {"type": "Feature", "properties": {"name": "99 Favor Taste", "ch_rating": 4.59431818181818, "ch_count": 880.0, "all_rating": 4.5, "all_count": 2933.0, "zip": "11220", "flushing": false}, "geometry": {"type": "Point", "coordinates": [-74.011606, 40.635497]}}, {"type": "Feature", "properties": {"name": "Beijing Dumpling House", "ch_rating": 4.59375, "ch_count": 32.0, "all_rating": 4.6, "all_count": 769.0, "zip": "11435", "flushing": false}, "geometry": {"type": "Point", "coordinates": [-73.809091, 40.7039761]}}, {"type": "Feature", "properties": {"name": "Tipsy Shanghai \u8607\u676d\u9910\u5385", "ch_rating": 4.5886075949367, "ch_count": 316.0, "all_rating": 4.5, "all_count": 957.0, "zip": "10016", "flushing": false}, "geometry": {"type": "Point", "coordinates": [-73.9761741, 40.7488307]}}, {"type": "Feature", "properties": {"name": "New King Wok", "ch_rating": 4.58333333333333, "ch_count": 12.0, "all_rating": 4.2, "all_count": 111.0, "zip": "11361", "flushing": true}, "geometry": {"type": "Point", "coordinates": [-73.7739169, 40.7685119]}}, {"type": "Feature", "properties": {"name": "DunHuang Lanzhou Beef Noodle", "ch_rating": 4.58274647887323, "ch_count": 568.0, "all_rating": 4.5, "all_count": 1268.0, "zip": "11354", "flushing": true}, "geometry": {"type": "Point", "coordinates": [-73.83037519999999, 40.7619076]}}, {"type": "Feature", "properties": {"name": "Liu's Shanghai", "ch_rating": 4.57894736842105, "ch_count": 133.0, "all_rating": 4.5, "all_count": 560.0, "zip": "11214", "flushing": false}, "geometry": {"type": "Point", "coordinates": [-74.0038949, 40.6028301]}}, {"type": "Feature", "properties": {"name": "JUQI", "ch_rating": 4.57876712328767, "ch_count": 1168.0, "all_rating": 4.5, "all_count": 2259.0, "zip": "11354", "flushing": true}, "geometry": {"type": "Point", "coordinates": [-73.8338664, 40.7602873]}}, {"type": "Feature", "properties": {"name": "Wong Kwong Hop", "ch_rating": 4.575, "ch_count": 40.0, "all_rating": 4.4, "all_count": 107.0, "zip": "11373", "flushing": false}, "geometry": {"type": "Point", "coordinates": [-73.8814826, 40.7355385]}}, {"type": "Feature", "properties": {"name": "Oriental Palace Kitchen", "ch_rating": 4.57142857142857, "ch_count": 7.0, "all_rating": 4.4, "all_count": 461.0, "zip": "11224", "flushing": false}, "geometry": {"type": "Point", "coordinates": [-73.99694439999999, 40.575]}}, {"type": "Feature", "properties": {"name": "New Green Dragon", "ch_rating": 4.57142857142857, "ch_count": 7.0, "all_rating": 4.2, "all_count": 468.0, "zip": "10465", "flushing": false}, "geometry": {"type": "Point", "coordinates": [-73.8166667, 40.8188889]}}, {"type": "Feature", "properties": {"name": "Dim Sum II Chinese Restaurant", "ch_rating": 4.57142857142857, "ch_count": 7.0, "all_rating": 4.2, "all_count": 236.0, "zip": "07016", "flushing": false}, "geometry": {"type": "Point", "coordinates": [-74.30552709999999, 40.6557032]}}, {"type": "Feature", "properties": {"name": "Lin\u2019s Asian Cuisine", "ch_rating": 4.57142857142857, "ch_count": 7.0, "all_rating": 4.3, "all_count": 226.0, "zip": "10462", "flushing": false}, "geometry": {"type": "Point", "coordinates": [-73.8537226, 40.8427071]}}, {"type": "Feature", "properties": {"name": "China Delight", "ch_rating": 4.57142857142857, "ch_count": 7.0, "all_rating": 4.2, "all_count": 154.0, "zip": "11232", "flushing": false}, "geometry": {"type": "Point", "coordinates": [-73.9969424, 40.6618091]}}, {"type": "Feature", "properties": {"name": "Chuang Chef", "ch_rating": 4.57142857142857, "ch_count": 7.0, "all_rating": 4.5, "all_count": 207.0, "zip": "11368", "flushing": true}, "geometry": {"type": "Point", "coordinates": [-73.853285, 40.74047]}}, {"type": "Feature", "properties": {"name": "East Garden", "ch_rating": 4.57142857142857, "ch_count": 14.0, "all_rating": 3.8, "all_count": 154.0, "zip": "11106", "flushing": false}, "geometry": {"type": "Point", "coordinates": [-73.9294425, 40.7562369]}}, {"type": "Feature", "properties": {"name": "King Dumplings", "ch_rating": 4.57142857142857, "ch_count": 98.0, "all_rating": 4.5, "all_count": 1090.0, "zip": "10002", "flushing": false}, "geometry": {"type": "Point", "coordinates": [-73.9917091, 40.7159626]}}, {"type": "Feature", "properties": {"name": "JACX&CO Food Hall", "ch_rating": 4.56716417910447, "ch_count": 67.0, "all_rating": 4.5, "all_count": 1007.0, "zip": "11101", "flushing": false}, "geometry": {"type": "Point", "coordinates": [-73.9384513, 40.7488559]}}, {"type": "Feature", "properties": {"name": "Wok 88", "ch_rating": 4.5625, "ch_count": 32.0, "all_rating": 4.3, "all_count": 1057.0, "zip": "10128", "flushing": false}, "geometry": {"type": "Point", "coordinates": [-73.95318, 40.7803949]}}, {"type": "Feature", "properties": {"name": "Dim Sum Palace", "ch_rating": 4.56028368794326, "ch_count": 141.0, "all_rating": 4.6, "all_count": 820.0, "zip": "10038", "flushing": false}, "geometry": {"type": "Point", "coordinates": [-74.00676279999999, 40.7094126]}}, {"type": "Feature", "properties": {"name": "HALAL Xpress Asian Fusion", "ch_rating": 4.56, "ch_count": 25.0, "all_rating": 4.6, "all_count": 607.0, "zip": "11214", "flushing": false}, "geometry": {"type": "Point", "coordinates": [-73.99667269999999, 40.6129502]}}, {"type": "Feature", "properties": {"name": "Chongqing Lao Zao \u91cd\u6176\u8001\u7076", "ch_rating": 4.55823863636363, "ch_count": 704.0, "all_rating": 4.6, "all_count": 1709.0, "zip": "11354", "flushing": true}, "geometry": {"type": "Point", "coordinates": [-73.8330235, 40.7606738]}}, {"type": "Feature", "properties": {"name": "Simply Noodles", "ch_rating": 4.55696202531645, "ch_count": 79.0, "all_rating": 4.5, "all_count": 516.0, "zip": "10023", "flushing": false}, "geometry": {"type": "Point", "coordinates": [-73.98118199999999, 40.778836]}}, {"type": "Feature", "properties": {"name": "Fairview Chinese Restaurant", "ch_rating": 4.55555555555555, "ch_count": 9.0, "all_rating": 4.3, "all_count": 194.0, "zip": "07022", "flushing": false}, "geometry": {"type": "Point", "coordinates": [-74.0011006, 40.8106552]}}, {"type": "Feature", "properties": {"name": "New Yummy Chinese Restaurant\u200e", "ch_rating": 4.55555555555555, "ch_count": 9.0, "all_rating": 4.3, "all_count": 139.0, "zip": "07087", "flushing": false}, "geometry": {"type": "Point", "coordinates": [-74.0174801, 40.77950360000001]}}, {"type": "Feature", "properties": {"name": "Hunan Delight Matsuya", "ch_rating": 4.55555555555555, "ch_count": 9.0, "all_rating": 4.1, "all_count": 164.0, "zip": "10075", "flushing": false}, "geometry": {"type": "Point", "coordinates": [-73.95125139999999, 40.77070800000001]}}, {"type": "Feature", "properties": {"name": "Hardee", "ch_rating": 4.55555555555555, "ch_count": 9.0, "all_rating": 4.4, "all_count": 255.0, "zip": "11233", "flushing": false}, "geometry": {"type": "Point", "coordinates": [-73.9108828, 40.6793668]}}, {"type": "Feature", "properties": {"name": "Fansway Teriyaki Kitchen", "ch_rating": 4.55555555555555, "ch_count": 9.0, "all_rating": 4.4, "all_count": 310.0, "zip": "11237", "flushing": false}, "geometry": {"type": "Point", "coordinates": [-73.915227, 40.69928590000001]}}, {"type": "Feature", "properties": {"name": "Annie's Kitchen | Kosher Chinese Food 11367 | Sushi 11367", "ch_rating": 4.55555555555555, "ch_count": 9.0, "all_rating": 4.4, "all_count": 374.0, "zip": "11367", "flushing": true}, "geometry": {"type": "Point", "coordinates": [-73.8217926, 40.7259524]}}, {"type": "Feature", "properties": {"name": "Sweet Bamboo Chinese Food | Sutphin", "ch_rating": 4.55555555555555, "ch_count": 9.0, "all_rating": 4.6, "all_count": 373.0, "zip": "11435", "flushing": false}, "geometry": {"type": "Point", "coordinates": [-73.7996964, 40.6931053]}}, {"type": "Feature", "properties": {"name": "Yoan's Garden", "ch_rating": 4.55555555555555, "ch_count": 9.0, "all_rating": 4.2, "all_count": 535.0, "zip": "08830", "flushing": false}, "geometry": {"type": "Point", "coordinates": [-74.3061838, 40.5657426]}}, {"type": "Feature", "properties": {"name": "Great Wall Chinese Restaurant", "ch_rating": 4.55555555555555, "ch_count": 9.0, "all_rating": 4.0, "all_count": 284.0, "zip": "11369", "flushing": false}, "geometry": {"type": "Point", "coordinates": [-73.8817713, 40.763896]}}, {"type": "Feature", "properties": {"name": "Song Dumpling Cafe", "ch_rating": 4.55555555555555, "ch_count": 18.0, "all_rating": 4.7, "all_count": 284.0, "zip": "11375", "flushing": false}, "geometry": {"type": "Point", "coordinates": [-73.8507099, 40.71024389999999]}}, {"type": "Feature", "properties": {"name": "For U", "ch_rating": 4.5531914893617, "ch_count": 47.0, "all_rating": 4.8, "all_count": 260.0, "zip": "10003", "flushing": false}, "geometry": {"type": "Point", "coordinates": [-73.98621659999999, 40.7342083]}}, {"type": "Feature", "properties": {"name": "Mama Lee", "ch_rating": 4.54807692307692, "ch_count": 104.0, "all_rating": 4.6, "all_count": 302.0, "zip": "11364", "flushing": true}, "geometry": {"type": "Point", "coordinates": [-73.7675955, 40.7554009]}}, {"type": "Feature", "properties": {"name": "Chef Guo - \u5c0f\u56fd\u5bb4", "ch_rating": 4.54716981132075, "ch_count": 53.0, "all_rating": 4.7, "all_count": 136.0, "zip": "10022", "flushing": false}, "geometry": {"type": "Point", "coordinates": [-73.971662, 40.7563814]}}, {"type": "Feature", "properties": {"name": "Taiwan Bear House", "ch_rating": 4.54676258992805, "ch_count": 139.0, "all_rating": 4.6, "all_count": 438.0, "zip": "10013", "flushing": false}, "geometry": {"type": "Point", "coordinates": [-73.9978094, 40.7147104]}}, {"type": "Feature", "properties": {"name": "Luanne's Wild Ginger Fort Greene", "ch_rating": 4.54545454545454, "ch_count": 11.0, "all_rating": 4.6, "all_count": 249.0, "zip": "11205", "flushing": false}, "geometry": {"type": "Point", "coordinates": [-73.96978849999999, 40.689625]}}, {"type": "Feature", "properties": {"name": "Wai Kang", "ch_rating": 4.54545454545454, "ch_count": 11.0, "all_rating": 4.0, "all_count": 178.0, "zip": "10468", "flushing": false}, "geometry": {"type": "Point", "coordinates": [-73.8882074, 40.8726905]}}, {"type": "Feature", "properties": {"name": "Hot Space", "ch_rating": 4.54430379746835, "ch_count": 237.0, "all_rating": 4.6, "all_count": 518.0, "zip": "11354", "flushing": true}, "geometry": {"type": "Point", "coordinates": [-73.83203209999999, 40.7594624]}}, {"type": "Feature", "properties": {"name": "Shu Jiao Fu Zhou", "ch_rating": 4.54430379746835, "ch_count": 395.0, "all_rating": 4.6, "all_count": 2851.0, "zip": "10002", "flushing": false}, "geometry": {"type": "Point", "coordinates": [-73.9920876, 40.7174109]}}, {"type": "Feature", "properties": {"name": "Authentic Szechuan", "ch_rating": 4.53333333333333, "ch_count": 15.0, "all_rating": 4.3, "all_count": 128.0, "zip": "11215", "flushing": false}, "geometry": {"type": "Point", "coordinates": [-73.9848757, 40.6711724]}}, {"type": "Feature", "properties": {"name": "CHILI", "ch_rating": 4.53246753246753, "ch_count": 231.0, "all_rating": 4.6, "all_count": 1311.0, "zip": "10016", "flushing": false}, "geometry": {"type": "Point", "coordinates": [-73.9820676, 40.7501259]}}, {"type": "Feature", "properties": {"name": "Qing Shu Spicy Hot Pot \u9752\u852c\u9ebb\u8fa3\u70eb", "ch_rating": 4.53125, "ch_count": 64.0, "all_rating": 4.5, "all_count": 165.0, "zip": "11361", "flushing": true}, "geometry": {"type": "Point", "coordinates": [-73.7706208, 40.7622312]}}, {"type": "Feature", "properties": {"name": "Fu Zhou Wei Zhong Wei Jia Xiang Feng Wei", "ch_rating": 4.53012048192771, "ch_count": 83.0, "all_rating": 4.7, "all_count": 452.0, "zip": "10002", "flushing": false}, "geometry": {"type": "Point", "coordinates": [-73.99414030000001, 40.7138354]}}, {"type": "Feature", "properties": {"name": "May Wah Fast Food", "ch_rating": 4.52755905511811, "ch_count": 127.0, "all_rating": 4.4, "all_count": 547.0, "zip": "10013", "flushing": false}, "geometry": {"type": "Point", "coordinates": [-73.9984559, 40.7181865]}}, {"type": "Feature", "properties": {"name": "La Dinastia", "ch_rating": 4.52, "ch_count": 25.0, "all_rating": 4.4, "all_count": 816.0, "zip": "10023", "flushing": false}, "geometry": {"type": "Point", "coordinates": [-73.98032210000001, 40.7782423]}}, {"type": "Feature", "properties": {"name": "The Corner Chinese Restaurant", "ch_rating": 4.52, "ch_count": 25.0, "all_rating": 4.4, "all_count": 416.0, "zip": "10036", "flushing": false}, "geometry": {"type": "Point", "coordinates": [-73.9896808, 40.7620099]}}, {"type": "Feature", "properties": {"name": "Spice Symphony", "ch_rating": 4.51282051282051, "ch_count": 39.0, "all_rating": 4.4, "all_count": 2066.0, "zip": "10022", "flushing": false}, "geometry": {"type": "Point", "coordinates": [-73.9715702, 40.75590529999999]}}, {"type": "Feature", "properties": {"name": "Vybes 109 / New York Vybes", "ch_rating": 4.51162790697674, "ch_count": 43.0, "all_rating": 4.4, "all_count": 275.0, "zip": "10013", "flushing": false}, "geometry": {"type": "Point", "coordinates": [-73.9986357, 40.71756970000001]}}, {"type": "Feature", "properties": {"name": "Secret Kitchen \u7ca4\u7cbe\u5f69", "ch_rating": 4.51063829787234, "ch_count": 47.0, "all_rating": 4.1, "all_count": 144.0, "zip": "11365", "flushing": true}, "geometry": {"type": "Point", "coordinates": [-73.7886365, 40.7398367]}}, {"type": "Feature", "properties": {"name": "Cheong Fun Cart", "ch_rating": 4.5079365079365, "ch_count": 63.0, "all_rating": 4.6, "all_count": 297.0, "zip": "10013", "flushing": false}, "geometry": {"type": "Point", "coordinates": [-73.9962285, 40.7176885]}}, {"type": "Feature", "properties": {"name": "Peking", "ch_rating": 4.5, "ch_count": 2.0, "all_rating": 4.2, "all_count": 106.0, "zip": "10457", "flushing": false}, "geometry": {"type": "Point", "coordinates": [-73.9047258, 40.8492791]}}, {"type": "Feature", "properties": {"name": "Great Wall Kitchen", "ch_rating": 4.5, "ch_count": 2.0, "all_rating": 4.0, "all_count": 168.0, "zip": "07036", "flushing": false}, "geometry": {"type": "Point", "coordinates": [-74.24286490000001, 40.6260545]}}, {"type": "Feature", "properties": {"name": "New Kam Po Garden", "ch_rating": 4.5, "ch_count": 2.0, "all_rating": 4.5, "all_count": 241.0, "zip": "07202", "flushing": false}, "geometry": {"type": "Point", "coordinates": [-74.2259572, 40.6578094]}}, {"type": "Feature", "properties": {"name": "China 1", "ch_rating": 4.5, "ch_count": 2.0, "all_rating": 4.1, "all_count": 211.0, "zip": "11220", "flushing": false}, "geometry": {"type": "Point", "coordinates": [-74.01636719999999, 40.6431414]}}, {"type": "Feature", "properties": {"name": "Yummy Yummy Chinese Kitchen", "ch_rating": 4.5, "ch_count": 2.0, "all_rating": 4.2, "all_count": 238.0, "zip": "10473", "flushing": false}, "geometry": {"type": "Point", "coordinates": [-73.862477, 40.8171921]}}, {"type": "Feature", "properties": {"name": "Lin's Garden Chinese Restaurant", "ch_rating": 4.5, "ch_count": 2.0, "all_rating": 4.4, "all_count": 148.0, "zip": "07203", "flushing": false}, "geometry": {"type": "Point", "coordinates": [-74.2776353, 40.654904]}}, {"type": "Feature", "properties": {"name": "Amy's", "ch_rating": 4.5, "ch_count": 2.0, "all_rating": 3.9, "all_count": 144.0, "zip": "10034", "flushing": false}, "geometry": {"type": "Point", "coordinates": [-73.921011, 40.8669331]}}, {"type": "Feature", "properties": {"name": "Shun Cheong", "ch_rating": 4.5, "ch_count": 4.0, "all_rating": 3.8, "all_count": 156.0, "zip": "10026", "flushing": false}, "geometry": {"type": "Point", "coordinates": [-73.9492652, 40.7975365]}}, {"type": "Feature", "properties": {"name": "King Kitchen", "ch_rating": 4.5, "ch_count": 4.0, "all_rating": 4.0, "all_count": 113.0, "zip": "11221", "flushing": false}, "geometry": {"type": "Point", "coordinates": [-73.9369086, 40.69139759999999]}}, {"type": "Feature", "properties": {"name": "Annie 88 Express", "ch_rating": 4.5, "ch_count": 4.0, "all_rating": 4.2, "all_count": 180.0, "zip": "11225", "flushing": false}, "geometry": {"type": "Point", "coordinates": [-73.9508701, 40.6678909]}}, {"type": "Feature", "properties": {"name": "China Moon", "ch_rating": 4.5, "ch_count": 4.0, "all_rating": 4.1, "all_count": 258.0, "zip": "11212", "flushing": false}, "geometry": {"type": "Point", "coordinates": [-73.9242659, 40.6638251]}}, {"type": "Feature", "properties": {"name": "Dairy Palace", "ch_rating": 4.5, "ch_count": 4.0, "all_rating": 4.5, "all_count": 386.0, "zip": "10314", "flushing": false}, "geometry": {"type": "Point", "coordinates": [-74.1369568, 40.611992]}}, {"type": "Feature", "properties": {"name": "Mandarin House", "ch_rating": 4.5, "ch_count": 4.0, "all_rating": 4.1, "all_count": 134.0, "zip": "10302", "flushing": false}, "geometry": {"type": "Point", "coordinates": [-74.1433789, 40.6256834]}}, {"type": "Feature", "properties": {"name": "China Delight", "ch_rating": 4.5, "ch_count": 4.0, "all_rating": 4.1, "all_count": 104.0, "zip": "11368", "flushing": true}, "geometry": {"type": "Point", "coordinates": [-73.8680212, 40.7522241]}}, {"type": "Feature", "properties": {"name": "Eastern Chinese Restaurant", "ch_rating": 4.5, "ch_count": 6.0, "all_rating": 3.6, "all_count": 173.0, "zip": "11106", "flushing": false}, "geometry": {"type": "Point", "coordinates": [-73.9308029, 40.7656999]}}, {"type": "Feature", "properties": {"name": "Dynasty Chinese Restaurant", "ch_rating": 4.5, "ch_count": 6.0, "all_rating": 4.1, "all_count": 273.0, "zip": "11210", "flushing": false}, "geometry": {"type": "Point", "coordinates": [-73.9440244, 40.6298023]}},